,address,addressZipcode,addressStreet,area,baths,beds,latitude,longitude,monthly_rent,nearest_transit,transit_walk_dist,transit_walk_time,ucsd_car_dist,ucsd_car_time,ucsd_transit_dist,ucsd_transit_time,nearest_grocery,grocery_car_dist,grocery_car_time,coast_dist_km,medNeighborhoodIncome,zip_code,avg_crime
0,"Vadara West, 2724 El Cajon Blvd #402, San Diego, CA 92104",92104,2724 El Cajon Blvd #402,795.0,1.0,1.0,32.755623,-117.13433,2995,City College,5.8 km,1 hour 17 mins,23.5 km,20 mins,27.6 km,1 hour 8 mins,Whole Foods Market,2.9 km,8 mins,11.041506516223793,92862,92104.0,1.3363227513227514
1,"Fashion Terrace, 6888 Friars Rd, San Diego, CA 92108",92108,6888 Friars Rd,1038.0,2.0,2.0,32.76901,-117.17207,3100,Old Town,3.8 km,52 mins,19.1 km,16 mins,19.4 km,45 mins,Whole Foods Market,4.1 km,7 mins,7.417457119495843,101704,92108.0,21.67928571428571
2,"Esprit Villas, 9830 Reagan Rd #60b404513, San Diego, CA 92126",92126,9830 Reagan Rd #60b404513,950.0,2.0,2.0,32.909718,-117.1474,2895,Miramar College Transit Station,2.9 km,42 mins,14.0 km,17 mins,14.6 km,43 mins,H Mart,3.5 km,10 mins,10.119282389326504,123232,92126.0,0.7442857142857143
3,"The Royal of Rancho Penasquitos, 9808 Paseo Montalban #27, San Diego, CA 92129",92129,9808 Paseo Montalban #27,982.0,2.0,2.0,32.962887,-117.11749,3095,Sabre Springs/Peñasquitos Transit Station,5.5 km,1 hour 16 mins,22.5 km,17 mins,23.6 km,1 hour 4 mins,H Mart,6.3 km,9 mins,13.790490435228431,152626,92129.0,0.5082010582010582
4,"10632 Quill Ct, San Diego, CA 92126",92126,10632 Quill Ct,1943.0,4.0,3.0,32.897533,-117.165726,5680,Miramar College Transit Station,6.7 km,1 hour 35 mins,9.5 km,15 mins,13.9 km,1 hour 0 mins,H Mart,7.2 km,14 mins,8.191808270342458,123232,92126.0,0.7442857142857143
5,"12605 El Camino Real Unit A, San Diego, CA 92130",92130,12605 El Camino Real Unit A,1584.0,3.0,3.0,32.94676,-117.23668,5195,Sorrento Valley,6.0 km,1 hour 21 mins,10.6 km,12 mins,,,Whole Foods Market,5.8 km,9 mins,2.7968179732476575,201731,92130.0,0.42060846560846554
6,"3709 Torrey View Ct, San Diego, CA 92130",92130,3709 Torrey View Ct,2541.0,4.0,4.0,32.920628,-117.23516,7350,UCSD Central Campus Station,6.1 km,1 hour 26 mins,7.6 km,9 mins,9.8 km,1 hour 32 mins,Jimbo’s - Carmel Valley,4.9 km,8 mins,2.4899663314786715,201731,92130.0,0.42060846560846554
7,"3405 Caminito Santa Fe Downs, Del Mar, CA 92014",92014,3405 Caminito Santa Fe Downs,4128.0,5.0,4.0,32.98119,-117.23833,10800,Solana Beach,4.3 km,1 hour 0 mins,15.6 km,13 mins,21.5 km,1 hour 18 mins,Whole Foods Market,1.4 km,4 mins,3.4693066466890627,194528,,
8,"13286 Ocean Vista Rd, San Diego, CA 92130",92130,13286 Ocean Vista Rd,2479.0,4.0,3.0,32.958984,-117.24186,12000,Solana Beach,8.7 km,1 hour 56 mins,12.0 km,11 mins,,,Whole Foods Market,5.1 km,8 mins,2.2039738677358054,201731,92130.0,0.42060846560846554
9,"6188 Sunset Crest Way, San Diego, CA 92121",92121,6188 Sunset Crest Way,1832.0,2.0,4.0,32.91745,-117.18708,5200,Sorrento Valley,4.3 km,57 mins,9.2 km,11 mins,14.6 km,1 hour 15 mins,Trader Joe's,15.0 km,15 mins,6.928711002508626,135795,92121.0,3.6518253968253975
10,"10512 Derella Way, San Diego, CA 92126",92126,10512 Derella Way,1230.0,2.0,2.0,32.89606,-117.16574,3850,Miramar College Transit Station,6.7 km,1 hour 35 mins,9.2 km,14 mins,14.0 km,1 hour 1 min,H Mart,7.2 km,13 mins,8.17210906247356,123232,92126.0,0.7442857142857143
11,"3626 Bernwood Pl Unit 64, San Diego, CA 92130",92130,3626 Bernwood Pl Unit 64,950.0,2.0,2.0,32.956066,-117.23538,3700,Sorrento Valley - Del Mar,4.0 km,53 mins,12.3 km,13 mins,,,Whole Foods Market,5.4 km,9 mins,2.7661722803883824,201731,92130.0,0.42060846560846554
12,"3790 Arroyo Sorrento Rd, San Diego, CA 92130",92130,3790 Arroyo Sorrento Rd,4370.0,4.0,5.0,32.927094,-117.23384,16000,Sorrento Valley,4.1 km,56 mins,8.6 km,10 mins,,,Jimbo’s - Carmel Valley,3.7 km,6 mins,2.675235243506591,201731,92130.0,0.42060846560846554
13,"11102 Akarna Ct, San Diego, CA 92126",92126,11102 Akarna Ct,1661.0,3.0,3.0,32.899384,-117.170204,5000,Miramar College Transit Station,6.2 km,1 hour 28 mins,9.7 km,15 mins,13.4 km,53 mins,H Mart,6.7 km,13 mins,7.80619785401426,123232,92126.0,0.7442857142857143
14,"7712 Goldfish Way, San Diego, CA 92129",92129,7712 Goldfish Way,2319.0,3.0,4.0,32.943516,-117.15736,5500,Miramar College Transit Station,6.7 km,1 hour 35 mins,21.2 km,18 mins,,,H Mart,7.5 km,11 mins,10.041726743536886,152626,92129.0,0.5082010582010582
15,"4516 Da Vinci St, San Diego, CA 92130",92130,4516 Da Vinci St,2210.0,3.0,3.0,32.942295,-117.21901,6000,Sorrento Valley,7.3 km,1 hour 39 mins,12.1 km,11 mins,,,Trader Joe's,4.7 km,8 mins,4.51789301214295,201731,92130.0,0.42060846560846554
16,"10790 Aderman Ave APT 107, San Diego, CA 92126",92126,10790 Aderman Ave APT 107,920.0,2.0,2.0,32.909332,-117.16478,2795,Miramar College Transit Station,4.5 km,1 hour 4 mins,12.0 km,15 mins,12.0 km,33 mins,H Mart,4.9 km,11 mins,8.538010467861584,123232,92126.0,0.7442857142857143
17,"12229 Carmel Vista Rd Unit 150, San Diego, CA 92130",92130,12229 Carmel Vista Rd Unit 150,791.0,1.0,1.0,32.940525,-117.237946,2750,Sorrento Valley,5.3 km,1 hour 11 mins,9.8 km,11 mins,,,Whole Foods Market,5.9 km,10 mins,2.9938984841983944,201731,92130.0,0.42060846560846554
18,"3840 Elijah Ct Unit 811, San Diego, CA 92130",92130,3840 Elijah Ct Unit 811,777.0,1.0,1.0,32.94619,-117.23337,2895,Sorrento Valley,6.3 km,1 hour 24 mins,10.9 km,13 mins,,,Whole Foods Market,6.2 km,11 mins,3.1096701913418276,201731,92130.0,0.42060846560846554
19,"11367 Cadence Grove Way, San Diego, CA 92130",92130,11367 Cadence Grove Way,2200.0,4.0,4.0,32.924553,-117.21451,6500,UCSD Health La Jolla Station,7.7 km,1 hour 48 mins,9.7 km,12 mins,,,Trader Joe's,8.4 km,12 mins,4.424510605631806,201731,92130.0,0.42060846560846554
20,"5259 Meadows Del Mar Dr, San Diego, CA 92130",92130,5259 Meadows Del Mar Dr,4941.0,6.0,5.0,32.940773,-117.20131,18000,Sorrento Valley,7.5 km,1 hour 45 mins,13.7 km,14 mins,,,Trader Joe's,5.8 km,9 mins,6.026759050197571,201731,92130.0,0.42060846560846554
21,"8229 Jade Coast Rd Unit 134, San Diego, CA 92126",92126,8229 Jade Coast Rd Unit 134,808.0,2.0,2.0,32.902016,-117.14529,2600,Miramar College Transit Station,3.3 km,47 mins,11.9 km,16 mins,15.3 km,53 mins,H Mart,4.1 km,10 mins,10.149716274609572,123232,92126.0,0.7442857142857143
22,"11355 Provencal Pl, San Diego, CA 92128",92128,11355 Provencal Pl,1068.0,2.0,2.0,32.966637,-117.086395,3650,Sabre Springs/Peñasquitos Transit Station,0.8 km,10 mins,25.0 km,19 mins,25.3 km,1 hour 21 mins,Trader Joe's,2.8 km,7 mins,16.713528701418827,128150,92128.0,0.918994708994709
23,"8741 Hebrides Dr, San Diego, CA 92126",92126,8741 Hebrides Dr,1008.0,2.0,2.0,32.90827,-117.13592,3895,Miramar College Transit Station,1.8 km,27 mins,13.2 km,19 mins,16.1 km,57 mins,H Mart,2.4 km,7 mins,11.131515206828563,123232,92126.0,0.7442857142857143
24,"12592 Rideabout Ct, San Diego, CA 92129",92129,12592 Rideabout Ct,1439.0,3.0,3.0,32.95033,-117.13899,4295,Miramar College Transit Station,5.4 km,1 hour 17 mins,22.5 km,18 mins,,,H Mart,4.8 km,8 mins,11.768939071801558,152626,92129.0,0.5082010582010582
25,"11624 Springside Rd, San Diego, CA 92128",92128,11624 Springside Rd,1982.0,3.0,4.0,32.94759,-117.08328,5250,Sabre Springs/Peñasquitos Transit Station,3.6 km,51 mins,26.0 km,21 mins,27.9 km,1 hour 20 mins,H Mart,7.0 km,9 mins,16.90536098957421,128150,92128.0,0.918994708994709
26,"12005 Cotorro Way, San Diego, CA 92128",92128,12005 Cotorro Way,700.0,1.0,1.0,33.040718,-117.070435,2499,Rancho Bernardo,4.5 km,1 hour 8 mins,34.7 km,26 mins,36.4 km,2 hours 0 mins,Vons,3.9 km,8 mins,19.7300363698562,128150,92128.0,0.918994708994709
27,"15357 Maturin Dr Unit 140, San Diego, CA 92127",92127,15357 Maturin Dr Unit 140,540.0,1.0,1.0,33.003883,-117.08931,2100,Rancho Bernardo,2.7 km,38 mins,29.5 km,22 mins,32.1 km,1 hour 19 mins,Trader Joe's,4.2 km,9 mins,17.24529628873159,179220,92127.0,0.4484391534391534
28,"8872 Alphecca Way, San Diego, CA 92126",92126,8872 Alphecca Way,2255.0,3.0,6.0,32.923683,-117.133125,4500,Miramar College Transit Station,2.4 km,35 mins,15.4 km,19 mins,17.2 km,56 mins,H Mart,2.3 km,6 mins,11.837422536954367,123232,92126.0,0.7442857142857143
29,"8405 Pallux Way, San Diego, CA 92126",92126,8405 Pallux Way,2138.0,3.0,4.0,32.921726,-117.14261,3995,Miramar College Transit Station,3.1 km,44 mins,14.9 km,18 mins,15.2 km,50 mins,H Mart,2.8 km,8 mins,10.930243314553586,123232,92126.0,0.7442857142857143
30,"13103 Ireland Ln, San Diego, CA 92129",92129,13103 Ireland Ln,1591.0,2.0,3.0,32.957203,-117.14617,9500,Mira Mesa Bl & Black Mountain Rd,6.2 km,1 hour 28 mins,19.7 km,17 mins,,,H Mart,6.7 km,12 mins,11.08981577321796,152626,92129.0,0.5082010582010582
31,"12615 Elisa Ln Unit 165, San Diego, CA 92128",92128,12615 Elisa Ln Unit 165,956.0,2.0,2.0,32.947346,-117.09405,2995,Miramar College Transit Station,6.5 km,1 hour 33 mins,26.8 km,21 mins,26.7 km,1 hour 19 mins,H Mart,6.3 km,9 mins,15.910887561173777,128150,92128.0,0.918994708994709
32,"12488 Heatherton Ct Unit 47, San Diego, CA 92128",92128,12488 Heatherton Ct Unit 47,1303.0,2.0,3.0,32.94518,-117.08887,3700,Miramar College Transit Station,6.8 km,1 hour 37 mins,25.5 km,21 mins,27.5 km,1 hour 24 mins,H Mart,6.5 km,9 mins,16.346937748135407,128150,92128.0,0.918994708994709
33,"9465 Compass Point Dr S, San Diego, CA 92126",92126,9465 Compass Point Dr S,1636.0,3.0,3.0,32.92649,-117.12231,4495,Miramar College Transit Station,2.0 km,29 mins,24.2 km,20 mins,17.1 km,56 mins,H Mart,1.4 km,5 mins,12.893355870658048,123232,92126.0,0.7442857142857143
34,"7865 Via Montebello Unit 5, San Diego, CA 92129",92129,7865 Via Montebello Unit 5,1432.0,3.0,2.0,32.96266,-117.15364,3750,Rancho Penasquitos Bl & Carmel Mountain Rd,4.4 km,1 hour 4 mins,18.5 km,15 mins,,,Trader Joe's,6.7 km,8 mins,10.42467590119108,152626,92129.0,0.5082010582010582
35,"13020 Wimberly Sq Unit 16, San Diego, CA 92128",92128,13020 Wimberly Sq Unit 16,561.0,1.0,1.0,32.955853,-117.095795,2200,Sabre Springs/Peñasquitos Transit Station,1.2 km,18 mins,25.9 km,19 mins,25.8 km,1 hour 15 mins,H Mart,6.7 km,9 mins,15.787616970618442,128150,92128.0,0.918994708994709
36,"11207 Avenida De Los Lobos Unit H, San Diego, CA 92127",92127,11207 Avenida De Los Lobos Unit H,756.0,1.0,1.0,33.00146,-117.09153,2400,Rancho Bernardo,3.3 km,46 mins,29.4 km,21 mins,32.2 km,1 hour 25 mins,Trader Joe's,4.2 km,9 mins,16.985772160191555,179220,92127.0,0.4484391534391534
37,"11805 Westview Pkwy, San Diego, CA 92126",92126,11805 Westview Pkwy,1805.0,3.0,4.0,32.933994,-117.12502,4500,Miramar College Transit Station,2.6 km,38 mins,23.4 km,19 mins,18.1 km,1 hour 10 mins,H Mart,2.1 km,5 mins,12.83776268892436,123232,92126.0,0.7442857142857143
38,"9504 Carroll Canyon Rd APT 204, San Diego, CA 92126",92126,9504 Carroll Canyon Rd APT 204,838.0,1.0,2.0,32.903748,-117.1213,5900,Miramar College Transit Station,1.8 km,26 mins,13.3 km,20 mins,14.4 km,54 mins,H Mart,3.0 km,7 mins,12.394088760769325,123232,92126.0,0.7442857142857143
39,"8580 New Salem St Unit 2, San Diego, CA 92126",92126,8580 New Salem St Unit 2,1628.0,3.0,4.0,32.915604,-117.138016,4400,Miramar College Transit Station,2.1 km,31 mins,14.7 km,18 mins,14.7 km,44 mins,H Mart,2.6 km,8 mins,11.13189597256735,123232,92126.0,0.7442857142857143
40,"11507 Mesa Madera Ct #11505, San Diego, CA 92131",92131,11507 Mesa Madera Ct #11505,600.0,1.0,1.0,32.905594,-117.087296,2900,Miramar College Transit Station,4.6 km,1 hour 3 mins,16.2 km,23 mins,23.7 km,1 hour 41 mins,H Mart,4.5 km,9 mins,15.568677133618705,181281,92131.0,0.44791005291005287
41,"10224 Maya Linda Rd APT 20, San Diego, CA 92126",92126,10224 Maya Linda Rd APT 20,610.0,1.0,1.0,32.90417,-117.117386,2300,Miramar College Transit Station,1.5 km,20 mins,23.5 km,17 mins,14.7 km,58 mins,H Mart,2.8 km,6 mins,12.762475804880326,123232,92126.0,0.7442857142857143
42,"11317 Avenida De Los Lobos, San Diego, CA 92127",92127,11317 Avenida De Los Lobos,850.0,1.0,1.0,33.00388,-117.092415,2400,Rancho Bernardo,3.1 km,43 mins,29.5 km,21 mins,32.0 km,1 hour 21 mins,Trader Joe's,4.3 km,9 mins,16.956702949257572,179220,92127.0,0.4484391534391534
43,"13330 Caminito Ciera Unit 20, San Diego, CA 92129",92129,13330 Caminito Ciera Unit 20,572.0,1.0,1.0,32.96056,-117.10404,2250,Sabre Springs/Peñasquitos Transit Station,5.1 km,1 hour 11 mins,23.6 km,19 mins,23.3 km,1 hour 10 mins,H Mart,6.7 km,10 mins,15.030369599241226,152626,92129.0,0.5082010582010582
44,"8916 Capricorn Way, San Diego, CA 92126",92126,8916 Capricorn Way,2138.0,2.0,4.0,32.925224,-117.13217,7950,Miramar College Transit Station,2.4 km,35 mins,15.4 km,18 mins,17.2 km,56 mins,H Mart,2.0 km,5 mins,11.978835137811634,123232,92126.0,0.7442857142857143
45,"9449 Fairgrove Ln Unit 102, San Diego, CA 92129",92129,9449 Fairgrove Ln Unit 102,927.0,2.0,2.0,32.957268,-117.12241,2950,Miramar College Transit Station,6.1 km,1 hour 25 mins,21.6 km,17 mins,24.3 km,1 hour 14 mins,H Mart,5.7 km,11 mins,13.306356980873517,152626,92129.0,0.5082010582010582
46,"12290 Corte Sabio #3203, San Diego, CA 92128",92128,12290 Corte Sabio #3203,1134.0,2.0,2.0,33.001453,-117.06667,3300,Rancho Bernardo,5.0 km,1 hour 7 mins,30.6 km,23 mins,30.4 km,1 hour 29 mins,Trader Joe's,2.7 km,7 mins,19.207573382721908,128150,92128.0,0.918994708994709
47,"16889 Going My Way, San Diego, CA 92127",92127,16889 Going My Way,3692.0,4.0,4.0,33.02982,-117.15459,15000,Del Dios Hwy. & Bing Crosby Bl.,1.6 km,25 mins,28.5 km,26 mins,34.3 km,1 hour 41 mins,Jimbo's - 4S Ranch,5.8 km,10 mins,11.858345240500828,179220,92127.0,0.4484391534391534
48,"17195 W Bernardo Dr W #205, San Diego, CA 92127",92127,17195 W Bernardo Dr W #205,874.0,1.0,2.0,33.027225,-117.081894,2450,Rancho Bernardo,1.2 km,18 mins,31.3 km,22 mins,35.1 km,1 hour 36 mins,Vons,2.2 km,6 mins,18.32162429738721,179220,92127.0,0.4484391534391534
49,"13126 Calle De Los Ninos, San Diego, CA 92129",92129,13126 Calle De Los Ninos,1254.0,2.0,3.0,32.95552,-117.10788,5250,Miramar College Transit Station,7.0 km,1 hour 39 mins,23.4 km,19 mins,22.6 km,1 hour 1 min,H Mart,5.3 km,8 mins,14.659907306588863,152626,92129.0,0.5082010582010582
50,"15293 Maturin Dr Unit 97, San Diego, CA 92127",92127,15293 Maturin Dr Unit 97,688.0,1.0,1.0,33.00452,-117.089615,2500,Rancho Bernardo,2.5 km,35 mins,29.3 km,21 mins,31.9 km,1 hour 17 mins,Trader Joe's,4.0 km,8 mins,17.22288003871343,179220,92127.0,0.4484391534391534
51,"15016 Avenida Venusto Unit 164, San Diego, CA 92128",92128,15016 Avenida Venusto Unit 164,708.0,1.0,1.0,32.991024,-117.0686,2400,Rancho Bernardo,5.7 km,1 hour 17 mins,30.0 km,22 mins,29.8 km,1 hour 21 mins,Trader Joe's,2.0 km,6 mins,18.753844900535633,128150,92128.0,0.918994708994709
52,"11955 Tivoli Park Row Unit 4, San Diego, CA 92128",92128,11955 Tivoli Park Row Unit 4,1076.0,2.0,2.0,32.97656,-117.07137,3350,Rancho Bernardo,7.2 km,1 hour 40 mins,26.9 km,21 mins,29.3 km,1 hour 26 mins,Trader Joe's,1.4 km,4 mins,18.22252723477113,128150,92128.0,0.918994708994709
53,"8330 Santa Arminta Ave, San Diego, CA 92126",92126,8330 Santa Arminta Ave,2107.0,3.0,4.0,32.930744,-117.14458,4995,Miramar College Transit Station,4.0 km,57 mins,13.7 km,15 mins,16.8 km,1 hour 0 mins,H Mart,3.6 km,9 mins,10.985692892649014,123232,92126.0,0.7442857142857143
54,"12242 Paseo Lucido APT C, San Diego, CA 92128",92128,12242 Paseo Lucido APT C,1096.0,2.0,2.0,33.008423,-117.068054,4300,Rancho Bernardo,3.5 km,49 mins,31.4 km,23 mins,34.6 km,1 hour 54 mins,Trader Joe's,3.7 km,8 mins,19.264968368466228,128150,92128.0,0.918994708994709
55,"15263 Maturin Dr Unit 9, San Diego, CA 92127",92127,15263 Maturin Dr Unit 9,688.0,1.0,1.0,33.00444,-117.090805,2400,Rancho Bernardo,2.6 km,35 mins,29.3 km,21 mins,31.9 km,1 hour 17 mins,Trader Joe's,4.1 km,9 mins,17.11155710497166,179220,92127.0,0.4484391534391534
56,"10911 Sabre Hill Dr Unit 360, San Diego, CA 92128",92128,10911 Sabre Hill Dr Unit 360,900.0,2.0,2.0,32.95497,-117.100296,2800,Sabre Springs/Peñasquitos Transit Station,1.6 km,23 mins,26.1 km,20 mins,26.4 km,1 hour 23 mins,H Mart,6.7 km,9 mins,15.367452518580889,128150,92128.0,0.918994708994709
57,"9930 Scripps Vista Way Unit 148, San Diego, CA 92131",92131,9930 Scripps Vista Way Unit 148,1352.0,3.0,3.0,32.92435,-117.11243,3750,Miramar College Transit Station,2.4 km,34 mins,26.8 km,21 mins,18.1 km,1 hour 10 mins,H Mart,2.3 km,7 mins,13.69711194759696,181281,92131.0,0.44791005291005287
58,"14265 Marianopolis Way, San Diego, CA 92129",92129,14265 Marianopolis Way,2888.0,3.0,4.0,32.97538,-117.12681,5350,Sabre Springs/Peñasquitos Transit Station,8.2 km,1 hour 54 mins,23.4 km,19 mins,,,Trader Joe's,9.6 km,14 mins,13.08977052171412,152626,92129.0,0.5082010582010582
59,"17091 Bernardo Center Dr APT A, San Diego, CA 92128",92128,17091 Bernardo Center Dr APT A,1040.0,2.0,2.0,33.023674,-117.07377,2995,Rancho Bernardo,1.6 km,25 mins,32.2 km,23 mins,35.5 km,1 hour 42 mins,Trader Joe's,8.0 km,11 mins,18.982532711196683,128150,92128.0,0.918994708994709
60,"11970 Black Mountain Rd Unit 59, San Diego, CA 92129",92129,11970 Black Mountain Rd Unit 59,1680.0,3.0,3.0,32.936295,-117.12717,3750,Miramar College Transit Station,3.0 km,46 mins,23.4 km,19 mins,18.8 km,1 hour 36 mins,H Mart,2.5 km,6 mins,12.668081420320648,152626,92129.0,0.5082010582010582
61,"17016 Matinal Rd, San Diego, CA 92127",92127,17016 Matinal Rd,1894.0,2.0,4.0,33.024807,-117.09258,4500,Rancho Bernardo,1.8 km,25 mins,31.9 km,22 mins,35.7 km,1 hour 42 mins,Vons,2.8 km,6 mins,17.290772189043192,179220,92127.0,0.4484391534391534
62,"10825 Caminito Arcada, San Diego, CA 92131",92131,10825 Caminito Arcada,1058.0,3.0,3.0,32.93212,-117.09569,3400,Miramar College Transit Station,4.8 km,1 hour 8 mins,29.3 km,23 mins,29.9 km,2 hours 4 mins,H Mart,4.6 km,9 mins,15.447533614078203,181281,92131.0,0.44791005291005287
63,"12602 Creekwood Ct, San Diego, CA 92129",92129,12602 Creekwood Ct,1439.0,3.0,3.0,32.950935,-117.13849,4395,Miramar College Transit Station,5.6 km,1 hour 20 mins,22.8 km,19 mins,,,H Mart,5.1 km,9 mins,11.812741014088951,152626,92129.0,0.5082010582010582
64,"12416 Lomica Dr, San Diego, CA 92128",92128,12416 Lomica Dr,1770.0,2.0,2.0,33.009293,-117.06131,3800,Rancho Bernardo,3.8 km,54 mins,31.9 km,24 mins,38.7 km,1 hour 40 mins,Trader Joe's,5.4 km,9 mins,19.900339481834067,128150,92128.0,0.918994708994709
65,"8311 Calle Morelos, San Diego, CA 92126",92126,8311 Calle Morelos,1558.0,2.0,3.0,32.92302,-117.144775,3800,Miramar College Transit Station,3.3 km,47 mins,14.6 km,17 mins,15.3 km,52 mins,H Mart,3.3 km,8 mins,10.79051369337427,123232,92126.0,0.7442857142857143
66,"10921 Polaris Dr #Id1292587p, San Diego, CA 92126",92126,10921 Polaris Dr #Id1292587p,914.0,1.0,2.0,32.918,-117.13137,6391,Miramar College Transit Station,1.8 km,26 mins,15.6 km,20 mins,16.6 km,47 mins,H Mart,1.7 km,5 mins,11.801504551783372,123232,92126.0,0.7442857142857143
67,"7976 Glenda Way, San Diego, CA 92126",92126,7976 Glenda Way,1471.0,2.0,3.0,32.916996,-117.150894,3795,Miramar College Transit Station,3.4 km,48 mins,13.7 km,16 mins,14.7 km,44 mins,H Mart,3.8 km,10 mins,10.02758431827411,123232,92126.0,0.7442857142857143
68,"12146 Lomica Dr, San Diego, CA 92128",92128,12146 Lomica Dr,1367.0,2.0,2.0,33.011837,-117.06806,3235,Rancho Bernardo,3.1 km,44 mins,31.2 km,23 mins,34.7 km,1 hour 56 mins,Trader Joe's,6.1 km,10 mins,19.30569645252116,128150,92128.0,0.918994708994709
69,"10513 Westonhill Dr, San Diego, CA 92126",92126,10513 Westonhill Dr,1090.0,2.0,2.0,32.909668,-117.1345,2850,Miramar College Transit Station,1.8 km,26 mins,13.6 km,20 mins,16.1 km,58 mins,H Mart,2.6 km,7 mins,11.292799249808883,123232,92126.0,0.7442857142857143
70,"12779 Calma Ct #Id1292594p, San Diego, CA 92128",92128,12779 Calma Ct #Id1292594p,2454.0,3.0,5.0,33.019268,-117.05374,11284,Rancho Bernardo,3.9 km,55 mins,33.8 km,25 mins,37.6 km,1 hour 43 mins,Trader Joe's,7.2 km,11 mins,20.73990761923846,128150,92128.0,0.918994708994709
71,"12902 Orangeburg Ave, San Diego, CA 92129",92129,12902 Orangeburg Ave,1760.0,2.0,3.0,32.952988,-117.12007,4500,Miramar College Transit Station,5.4 km,1 hour 17 mins,22.4 km,18 mins,23.8 km,1 hour 17 mins,H Mart,4.9 km,9 mins,13.524472152531212,152626,92129.0,0.5082010582010582
72,"11906 Paseo Lucido Unit 153, San Diego, CA 92128",92128,11906 Paseo Lucido Unit 153,1478.0,3.0,2.0,33.016193,-117.075165,3550,Rancho Bernardo,2.4 km,35 mins,30.7 km,23 mins,33.6 km,1 hour 40 mins,Trader Joe's,4.9 km,10 mins,18.713649270079753,128150,92128.0,0.918994708994709
73,"8186 Calle Del Humo, San Diego, CA 92126",92126,8186 Calle Del Humo,1409.0,2.0,4.0,32.92992,-117.147514,3995,Miramar College Transit Station,4.3 km,1 hour 0 mins,13.4 km,15 mins,17.0 km,1 hour 4 mins,H Mart,3.9 km,10 mins,10.7049371926275,123232,92126.0,0.7442857142857143
74,"9795 Mesa Springs Way Unit 97, San Diego, CA 92126",92126,9795 Mesa Springs Way Unit 97,775.0,1.0,1.0,32.900246,-117.11785,3000,Miramar College Transit Station,1.8 km,26 mins,23.8 km,19 mins,14.6 km,1 hour 0 mins,H Mart,3.0 km,8 mins,12.66744316652646,123232,92126.0,0.7442857142857143
75,"17432 Fairlie Rd, San Diego, CA 92128",92128,17432 Fairlie Rd,1772.0,3.0,3.0,33.028862,-117.07701,3750,Rancho Bernardo,2.3 km,32 mins,32.2 km,23 mins,33.9 km,1 hour 44 mins,Vons,1.4 km,5 mins,18.80586146031556,128150,92128.0,0.918994708994709
76,"8426 Summerdale Rd Unit C, San Diego, CA 92126",92126,8426 Summerdale Rd Unit C,884.0,2.0,2.0,32.919823,-117.142685,2950,Miramar College Transit Station,2.7 km,39 mins,15.4 km,18 mins,14.9 km,46 mins,H Mart,3.1 km,8 mins,10.854017513524656,123232,92126.0,0.7442857142857143
77,"8550 Westmore Rd APT 261, San Diego, CA 92126",92126,8550 Westmore Rd APT 261,907.0,2.0,2.0,32.918617,-117.13995,3500,Miramar College Transit Station,2.4 km,35 mins,15.5 km,18 mins,15.0 km,47 mins,H Mart,2.8 km,7 mins,11.054857443428434,123232,92126.0,0.7442857142857143
78,"12431 Conquistador Way, San Diego, CA 92128",92128,12431 Conquistador Way,2052.0,2.0,2.0,33.025986,-117.062256,4500,Rancho Bernardo,3.5 km,50 mins,33.4 km,25 mins,35.1 km,2 hours 2 mins,Amazon Fresh,5.7 km,8 mins,20.085321092768066,128150,92128.0,0.918994708994709
79,"11620 Trailbrook Ln, San Diego, CA 92128",92128,11620 Trailbrook Ln,1788.0,3.0,3.0,32.945747,-117.07825,4300,Sabre Springs/Peñasquitos Transit Station,4.1 km,59 mins,26.7 km,22 mins,28.4 km,1 hour 21 mins,Trader Joe's,7.9 km,9 mins,17.335681873571183,128150,92128.0,0.918994708994709
80,"12160 Rancho Bernardo Rd, San Diego, CA 92128",92128,12160 Rancho Bernardo Rd,1098.0,2.0,2.0,33.02103,-117.06694,3200,Rancho Bernardo,2.3 km,34 mins,32.2 km,23 mins,33.9 km,1 hour 46 mins,Trader Joe's,8.0 km,11 mins,19.556202957520007,128150,92128.0,0.918994708994709
81,"14494 Corte De Verdad, San Diego, CA 92129",92129,14494 Corte De Verdad,2550.0,3.0,5.0,32.98008,-117.1306,4900,Sabre Springs/Peñasquitos Transit Station,8.5 km,1 hour 57 mins,22.5 km,18 mins,,,Vons,2.9 km,5 mins,12.84460042169012,152626,92129.0,0.5082010582010582
82,"11370 Trebol St, San Diego, CA 92126",92126,11370 Trebol St,900.0,2.0,2.0,32.92822,-117.145744,2750,Miramar College Transit Station,4.0 km,56 mins,13.4 km,16 mins,16.7 km,59 mins,H Mart,3.7 km,10 mins,10.85559512414341,123232,92126.0,0.7442857142857143
83,"10326 Scripps Poway Pkwy Unit 30, San Diego, CA 92131",92131,10326 Scripps Poway Pkwy Unit 30,1343.0,3.0,3.0,32.93777,-117.106186,4100,Miramar College Transit Station,4.5 km,1 hour 3 mins,27.9 km,21 mins,24.8 km,1 hour 36 mins,H Mart,3.6 km,7 mins,14.631622049370671,181281,92131.0,0.44791005291005287
84,"11025 Caminito Arcada, San Diego, CA 92131",92131,11025 Caminito Arcada,1320.0,3.0,3.0,32.931644,-117.094734,3800,Miramar College Transit Station,4.8 km,1 hour 8 mins,29.3 km,23 mins,29.9 km,2 hours 5 mins,H Mart,4.6 km,9 mins,15.515879724830617,181281,92131.0,0.44791005291005287
85,"11576 Caminito Corriente, San Diego, CA 92128",92128,11576 Caminito Corriente,1710.0,2.0,3.0,32.99897,-117.07502,4650,Rancho Bernardo,5.0 km,1 hour 9 mins,31.0 km,24 mins,30.7 km,1 hour 33 mins,Trader Joe's,3.0 km,8 mins,18.383465606043668,128150,92128.0,0.918994708994709
86,"11315 Middle Ridge Ter, San Diego, CA 92128",92128,11315 Middle Ridge Ter,1827.0,3.0,4.0,32.956604,-117.08922,5500,Sabre Springs/Peñasquitos Transit Station,1.2 km,16 mins,25.7 km,19 mins,25.3 km,1 hour 21 mins,Trader Joe's,3.9 km,8 mins,16.401699148077903,128150,92128.0,0.918994708994709
87,"10970 Summerdale Way APT 315, San Diego, CA 92126",92126,10970 Summerdale Way APT 315,897.0,2.0,2.0,32.91871,-117.14116,3200,Miramar College Transit Station,2.5 km,36 mins,15.4 km,18 mins,14.8 km,46 mins,H Mart,2.8 km,7 mins,10.950418597912195,123232,92126.0,0.7442857142857143
88,"13687 Paseo Cardiel Unit 19, San Diego, CA 92129",92129,13687 Paseo Cardiel Unit 19,956.0,1.0,2.0,32.963917,-117.11375,2750,Sabre Springs/Peñasquitos Transit Station,5.5 km,1 hour 16 mins,22.6 km,17 mins,23.7 km,1 hour 2 mins,Trader Joe's,5.1 km,10 mins,14.1462246711121,152626,92129.0,0.5082010582010582
89,"10832 Deering St #2, San Diego, CA 92126",92126,10832 Deering St #2,480.0,1.0,1.0,32.916218,-117.1462,2200,Miramar College Transit Station,2.9 km,41 mins,14.1 km,17 mins,14.2 km,37 mins,H Mart,3.2 km,9 mins,10.418396311760146,123232,92126.0,0.7442857142857143
90,"17131 W Bernardo Dr Unit 202, San Diego, CA 92127",92127,17131 W Bernardo Dr Unit 202,1040.0,2.0,3.0,33.025406,-117.08225,3200,Rancho Bernardo,1.0 km,15 mins,31.1 km,21 mins,34.9 km,1 hour 32 mins,Trader Joe's,6.9 km,9 mins,18.246061072937593,179220,92127.0,0.4484391534391534
91,"18666 Caminito Pasadero, San Diego, CA 92128",92128,18666 Caminito Pasadero,1035.0,2.0,2.0,33.05083,-117.06865,3295,Rancho Bernardo,5.2 km,1 hour 16 mins,35.6 km,25 mins,,,Vons,6.1 km,9 mins,20.128953289050433,128150,92128.0,0.918994708994709
92,"17189 W Bernardo Dr Unit 103, San Diego, CA 92127",92127,17189 W Bernardo Dr Unit 103,955.0,2.0,2.0,33.025864,-117.082344,2850,Rancho Bernardo,1.0 km,16 mins,31.1 km,21 mins,35.0 km,1 hour 33 mins,Trader Joe's,6.9 km,9 mins,18.248164547682688,179220,92127.0,0.4484391534391534
93,"12625 Fiorenza Ln, San Diego, CA 92128",92128,12625 Fiorenza Ln,1227.0,2.0,3.0,32.94731,-117.09324,3875,Miramar College Transit Station,6.6 km,1 hour 34 mins,25.2 km,21 mins,26.8 km,1 hour 20 mins,H Mart,6.2 km,8 mins,15.984564330186164,128150,92128.0,0.918994708994709
94,"11205 Candleberry Ct, San Diego, CA 92128",92128,11205 Candleberry Ct,1500.0,3.0,3.0,32.974617,-117.08744,4499,Rancho Bernardo,7.2 km,1 hour 42 mins,25.8 km,19 mins,28.2 km,1 hour 20 mins,Trader Joe's,1.8 km,5 mins,16.708120547303825,128150,92128.0,0.918994708994709
95,"11273 Del Diablo St, San Diego, CA 92129",92129,11273 Del Diablo St,2338.0,3.0,4.0,32.98585,-117.08779,6250,Rancho Bernardo,5.3 km,1 hour 13 mins,27.4 km,21 mins,27.9 km,1 hour 23 mins,Trader Joe's,3.2 km,8 mins,16.88357441137372,152626,92129.0,0.5082010582010582
96,"10470 Hollingsworth Way Unit 178, San Diego, CA 92127",92127,10470 Hollingsworth Way Unit 178,1428.0,3.0,3.0,33.02116,-117.11074,4200,Rancho Bernardo,4.1 km,57 mins,27.7 km,26 mins,,,Vons,5.1 km,10 mins,15.550089254584424,179220,92127.0,0.4484391534391534
97,"17255 Graciosa Ct, San Diego, CA 92128",92128,17255 Graciosa Ct,1877.0,2.0,4.0,33.026955,-117.07277,5450,Rancho Bernardo,2.6 km,39 mins,32.6 km,24 mins,34.3 km,1 hour 51 mins,Vons,1.8 km,6 mins,19.146365143408797,128150,92128.0,0.918994708994709
98,"16917 Vasquez Way Unit 68, San Diego, CA 92127",92127,16917 Vasquez Way Unit 68,1389.0,3.0,3.0,33.021984,-117.11213,4050,Rancho Bernardo,4.0 km,55 mins,27.6 km,25 mins,,,Vons,5.0 km,10 mins,15.44357451543019,179220,92127.0,0.4484391534391534
99,"8171 Jade Coast Rd #205, San Diego, CA 92126",92126,8171 Jade Coast Rd #205,2079.0,3.0,7.0,32.902058,-117.147804,6480,Miramar College Transit Station,3.5 km,49 mins,12.3 km,17 mins,15.4 km,53 mins,H Mart,4.1 km,10 mins,9.918347929020351,123232,92126.0,0.7442857142857143
100,"12260 Corte Sabio #5307, San Diego, CA 92128",92128,12260 Corte Sabio #5307,1164.0,2.0,2.0,33.002068,-117.06738,3100,Rancho Bernardo,5.0 km,1 hour 8 mins,30.7 km,23 mins,30.5 km,1 hour 30 mins,Trader Joe's,2.7 km,7 mins,19.162296197506187,128150,92128.0,0.918994708994709
101,"9995 Scripps Westview Way Unit 47, San Diego, CA 92131",92131,9995 Scripps Westview Way Unit 47,756.0,1.0,1.0,32.92169,-117.11236,2600,Miramar College Transit Station,2.4 km,34 mins,26.7 km,21 mins,18.2 km,1 hour 10 mins,H Mart,2.2 km,7 mins,13.6204511686195,181281,92131.0,0.44791005291005287
102,"11688 Aspendell Dr, San Diego, CA 92131",92131,11688 Aspendell Dr,2612.0,3.0,3.0,32.931015,-117.10627,6395,Miramar College Transit Station,4.3 km,57 mins,28.9 km,22 mins,21.3 km,1 hour 40 mins,H Mart,4.0 km,8 mins,14.472626643180796,181281,92131.0,0.44791005291005287
103,"12071 Alta Carmel Ct, San Diego, CA 92128",92128,12071 Alta Carmel Ct,704.0,1.0,1.0,32.992077,-117.072426,2300,Rancho Bernardo,5.9 km,1 hour 20 mins,30.2 km,23 mins,29.9 km,1 hour 23 mins,Trader Joe's,2.2 km,7 mins,18.4310657689662,128150,92128.0,0.918994708994709
104,"9414 Twin Trails Dr Unit 204, San Diego, CA 92129",92129,9414 Twin Trails Dr Unit 204,927.0,2.0,2.0,32.956356,-117.12405,2795,Miramar College Transit Station,6.1 km,1 hour 26 mins,21.7 km,18 mins,24.6 km,1 hour 18 mins,H Mart,5.8 km,11 mins,13.151883479114048,152626,92129.0,0.5082010582010582
105,"9949 Azuaga St Unit G203, San Diego, CA 92129",92129,9949 Azuaga St Unit G203,833.0,2.0,2.0,32.95808,-117.11072,2750,Sabre Springs/Peñasquitos Transit Station,4.6 km,1 hour 4 mins,22.6 km,17 mins,22.7 km,1 hour 0 mins,H Mart,5.4 km,8 mins,14.398677464470344,152626,92129.0,0.5082010582010582
106,"11491 Cypress Canyon Park Dr, San Diego, CA 92131",92131,11491 Cypress Canyon Park Dr,3040.0,3.0,5.0,32.92766,-117.06507,6990,Sabre Springs/Peñasquitos Transit Station,6.5 km,1 hour 28 mins,19.4 km,26 mins,,,Trader Joe's,6.5 km,9 mins,18.05800367005178,181281,92131.0,0.44791005291005287
107,"11333 Avenida De Los Lobos Floor 1, San Diego, CA 92127",92127,11333 Avenida De Los Lobos Floor 1,756.0,1.0,1.0,33.004242,-117.0925,2300,Rancho Bernardo,3.1 km,43 mins,29.5 km,22 mins,32.0 km,1 hour 22 mins,Trader Joe's,4.3 km,9 mins,16.952191779439552,179220,92127.0,0.4484391534391534
108,"16913 Laurel Hill Ln Unit 144, San Diego, CA 92127",92127,16913 Laurel Hill Ln Unit 144,1068.0,2.0,2.0,33.022507,-117.11373,3000,Rancho Bernardo,4.4 km,1 hour 1 min,28.0 km,26 mins,,,Vons,5.4 km,11 mins,15.31126413732696,179220,92127.0,0.4484391534391534
109,"16960 Silver Pine Rd, San Diego, CA 92127",92127,16960 Silver Pine Rd,2455.0,3.0,4.0,33.024673,-117.11649,5850,Rancho Bernardo,4.6 km,1 hour 5 mins,29.9 km,26 mins,,,Vons,5.7 km,11 mins,15.118285070608602,179220,92127.0,0.4484391534391534
110,"9302 Twin Trails Dr Unit 102, San Diego, CA 92129",92129,9302 Twin Trails Dr Unit 102,927.0,2.0,2.0,32.95596,-117.127464,2900,Miramar College Transit Station,5.9 km,1 hour 23 mins,21.4 km,17 mins,24.9 km,1 hour 23 mins,H Mart,5.5 km,11 mins,12.832956408430622,152626,92129.0,0.5082010582010582
111,"11952 Cypress Canyon Rd Unit 3, San Diego, CA 92131",92131,11952 Cypress Canyon Rd Unit 3,1416.0,3.0,3.0,32.933594,-117.08507,3695,Miramar College Transit Station,5.9 km,1 hour 23 mins,29.9 km,23 mins,31.1 km,1 hour 56 mins,H Mart,5.7 km,10 mins,16.44085539019094,181281,92131.0,0.44791005291005287
112,"10942 Westmore Ln, San Diego, CA 92126",92126,10942 Westmore Ln,840.0,2.0,3.0,32.918003,-117.15148,3200,Miramar College Transit Station,3.4 km,48 mins,13.9 km,17 mins,14.9 km,46 mins,H Mart,3.7 km,9 mins,10.011772875065857,123232,92126.0,0.7442857142857143
113,"11671 Boulton Ave, San Diego, CA 92128",92128,11671 Boulton Ave,2350.0,3.0,4.0,32.97293,-117.07961,4700,Rancho Bernardo,7.2 km,1 hour 41 mins,26.2 km,19 mins,28.2 km,1 hour 19 mins,Trader Joe's,1.5 km,4 mins,17.41030055807244,128150,92128.0,0.918994708994709
114,"9568 Capricorn Way, San Diego, CA 92126",92126,9568 Capricorn Way,1636.0,3.0,4.0,32.925117,-117.12059,4395,Miramar College Transit Station,2.1 km,30 mins,24.3 km,21 mins,17.3 km,57 mins,H Mart,1.5 km,5 mins,12.996623181693794,123232,92126.0,0.7442857142857143
115,"14264 Jonah Way, San Diego, CA 92128",92128,14264 Jonah Way,1272.0,3.0,2.0,32.977074,-117.07575,3700,Rancho Bernardo,7.2 km,1 hour 40 mins,26.5 km,20 mins,29.3 km,1 hour 26 mins,Trader Joe's,1.8 km,6 mins,17.825270132830674,128150,92128.0,0.918994708994709
116,"8367 Gold Coast Dr Unit 4, San Diego, CA 92126",92126,8367 Gold Coast Dr Unit 4,1342.0,3.0,3.0,32.904324,-117.14364,3950,Miramar College Transit Station,2.9 km,40 mins,12.6 km,18 mins,15.1 km,49 mins,H Mart,3.6 km,10 mins,10.342523162093194,123232,92126.0,0.7442857142857143
117,"11215 Provencal Pl, San Diego, CA 92128",92128,11215 Provencal Pl,1068.0,2.0,2.0,32.966602,-117.0892,2950,Sabre Springs/Peñasquitos Transit Station,0.4 km,6 mins,24.6 km,18 mins,24.9 km,1 hour 17 mins,Trader Joe's,2.5 km,6 mins,16.45232542852643,128150,92128.0,0.918994708994709
118,"14130 Barrymore St, San Diego, CA 92129",92129,14130 Barrymore St,1640.0,2.0,3.0,32.973682,-117.135216,4650,Sabre Springs/Peñasquitos Transit Station,8.1 km,1 hour 55 mins,23.4 km,19 mins,,,Vons,2.6 km,5 mins,12.2849238838034,152626,92129.0,0.5082010582010582
119,"11003 Peyton Way, San Diego, CA 92129",92129,11003 Peyton Way,1612.0,3.0,3.0,32.973545,-117.0915,4100,Rancho Bernardo,7.1 km,1 hour 40 mins,24.9 km,20 mins,26.1 km,1 hour 6 mins,Trader Joe's,2.4 km,7 mins,16.31727257550922,152626,92129.0,0.5082010582010582
120,"Waring Gardens Apartments, 5340 Adobe Falls Rd #J, San Diego, CA 92120",92120,5340 Adobe Falls Rd #J,725.0,1.0,1.0,32.782207,-117.083916,1850,SDSU Station,6.0 km,1 hour 29 mins,27.1 km,19 mins,27.5 km,1 hour 11 mins,Northgate González Market,6.8 km,12 mins,15.731441127297568,114579,92120.0,1.4088977072310405
121,"15668 Caldas De Reyes, San Diego, CA 92128",92128,15668 Caldas De Reyes,1467.0,2.0,2.0,32.999397,-117.0633,3500,Rancho Bernardo,5.2 km,1 hour 11 mins,30.9 km,25 mins,30.6 km,1 hour 32 mins,Trader Joe's,3.4 km,8 mins,19.451462206966717,128150,92128.0,0.918994708994709
122,"16054 Falcon Crest Dr, San Diego, CA 92127",92127,16054 Falcon Crest Dr,5188.0,6.0,6.0,33.004204,-117.10454,7545,Rancho Bernardo,3.9 km,56 mins,25.5 km,21 mins,32.9 km,1 hour 35 mins,Trader Joe's,5.1 km,10 mins,15.833450761020543,179220,92127.0,0.4484391534391534
123,"9179 Bedel Ct, San Diego, CA 92129",92129,9179 Bedel Ct,1890.0,2.0,4.0,32.979244,-117.13153,4495,Sabre Springs/Peñasquitos Transit Station,8.6 km,1 hour 59 mins,22.7 km,19 mins,,,Vons,2.9 km,6 mins,12.739987770213451,152626,92129.0,0.5082010582010582
124,"8256 The Landing Way, San Diego, CA 92127",92127,8256 The Landing Way,1000.0,2.0,1.0,33.03073,-117.14873,4500,Del Dios Hwy. & Bing Crosby Bl.,2.1 km,29 mins,29.9 km,26 mins,34.8 km,1 hour 46 mins,Jimbo's - 4S Ranch,5.1 km,9 mins,12.4125269486814,179220,92127.0,0.4484391534391534
125,"10278 Black Mountain Rd APT 171, San Diego, CA 92126",92126,10278 Black Mountain Rd APT 171,686.0,1.0,1.0,32.90463,-117.12484,2000,Miramar College Transit Station,1.4 km,20 mins,13.1 km,20 mins,14.2 km,51 mins,H Mart,3.4 km,8 mins,12.080878454121654,123232,92126.0,0.7442857142857143
126,"13062 Wimberly Sq, San Diego, CA 92128",92128,13062 Wimberly Sq,561.0,1.0,1.0,32.956387,-117.095566,2500,Sabre Springs/Peñasquitos Transit Station,1.1 km,17 mins,25.9 km,20 mins,25.8 km,1 hour 16 mins,H Mart,6.7 km,9 mins,15.809402962368091,128150,92128.0,0.918994708994709
127,"18782 Caminito Cantilena Unit 138, San Diego, CA 92128",92128,18782 Caminito Cantilena Unit 138,1056.0,2.0,2.0,33.052143,-117.07146,2800,Rancho Bernardo,5.7 km,1 hour 23 mins,35.6 km,25 mins,,,Vons,6.2 km,10 mins,19.89860289183357,128150,92128.0,0.918994708994709
128,"9574 Carroll Canyon Rd APT 153, San Diego, CA 92126",92126,9574 Carroll Canyon Rd APT 153,640.0,1.0,1.0,32.904182,-117.1204,2095,Miramar College Transit Station,1.8 km,25 mins,23.8 km,18 mins,14.4 km,54 mins,H Mart,3.0 km,7 mins,12.483952316508056,123232,92126.0,0.7442857142857143
129,"15586 New Park Ter, San Diego, CA 92127",92127,15586 New Park Ter,2861.0,4.0,4.0,33.018127,-117.14634,6750,Del Dios Hwy. & Bing Crosby Bl.,6.7 km,1 hour 35 mins,26.6 km,23 mins,,,Jimbo's - 4S Ranch,3.5 km,7 mins,12.24174392982763,179220,92127.0,0.4484391534391534
130,"13480 Chelly Ct, San Diego, CA 92129",92129,13480 Chelly Ct,1798.0,3.0,4.0,32.96392,-117.138725,4500,Sabre Springs/Peñasquitos Transit Station,7.7 km,1 hour 49 mins,22.3 km,18 mins,,,Trader Joe's,10.5 km,11 mins,11.822975782589872,152626,92129.0,0.5082010582010582
131,"13988 Lewiston St, San Diego, CA 92128",92128,13988 Lewiston St,2092.0,3.0,4.0,32.97456,-117.07508,4995,Rancho Bernardo,7.3 km,1 hour 42 mins,26.3 km,19 mins,28.7 km,1 hour 26 mins,Trader Joe's,1.5 km,4 mins,17.851220642050848,128150,92128.0,0.918994708994709
132,"11378 Ajanta Ct, San Diego, CA 92129",92129,11378 Ajanta Ct,1405.0,2.0,4.0,32.994152,-117.0857,4800,Rancho Bernardo,4.2 km,58 mins,28.7 km,23 mins,31.7 km,1 hour 26 mins,Trader Joe's,4.5 km,10 mins,17.282900694707497,152626,92129.0,0.5082010582010582
133,"11183 Kelowna Rd APT 36, San Diego, CA 92126",92126,11183 Kelowna Rd APT 36,920.0,2.0,3.0,32.92666,-117.14027,3200,Miramar College Transit Station,3.5 km,49 mins,14.5 km,17 mins,16.2 km,56 mins,H Mart,3.1 km,8 mins,11.329657677951422,123232,92126.0,0.7442857142857143
134,"8178 Lazy River Rd, San Diego, CA 92127",92127,8178 Lazy River Rd,3585.0,5.0,5.0,33.032707,-117.152885,11995,Del Dios Hwy. & Bing Crosby Bl.,1.7 km,25 mins,28.9 km,26 mins,34.4 km,1 hour 42 mins,Jimbo's - 4S Ranch,5.4 km,10 mins,12.055479365443771,179220,92127.0,0.4484391534391534
135,"12486 Miranda Way, San Diego, CA 92129",92129,12486 Miranda Way,1990.0,3.0,4.0,32.982677,-117.08584,4995,Rancho Bernardo,7.1 km,1 hour 38 mins,27.4 km,21 mins,27.9 km,1 hour 23 mins,Trader Joe's,3.2 km,8 mins,16.994603276830873,152626,92129.0,0.5082010582010582
136,"12482 Miranda Way, San Diego, CA 92129",92129,12482 Miranda Way,1199.0,2.0,2.0,32.98278,-117.0858,4500,Rancho Bernardo,7.1 km,1 hour 39 mins,27.4 km,21 mins,27.9 km,1 hour 24 mins,Trader Joe's,3.2 km,8 mins,17.000340874423582,152626,92129.0,0.5082010582010582
137,"15454 Nawa Ct, San Diego, CA 92129",92129,15454 Nawa Ct,1605.0,2.0,3.0,32.99437,-117.09214,7200,Rancho Bernardo,4.3 km,1 hour 0 mins,28.3 km,22 mins,31.7 km,1 hour 28 mins,Trader Joe's,4.1 km,10 mins,16.708532337016223,152626,92129.0,0.5082010582010582
138,"11177 Catarina Ln Unit 103, San Diego, CA 92128",92128,11177 Catarina Ln Unit 103,1227.0,2.0,3.0,32.94675,-117.08924,3895,Miramar College Transit Station,6.7 km,1 hour 35 mins,25.3 km,21 mins,27.3 km,1 hour 19 mins,H Mart,6.3 km,9 mins,16.341437175493763,128150,92128.0,0.918994708994709
139,"10062 Paseo Montril Floor 3-ID31, San Diego, CA 92129",92129,10062 Paseo Montril Floor 3-ID31,701.0,1.0,1.0,32.9524,-117.10841,1920,Miramar College Transit Station,6.4 km,1 hour 31 mins,23.5 km,19 mins,22.2 km,59 mins,H Mart,4.9 km,8 mins,14.61346055842966,152626,92129.0,0.5082010582010582
140,"9608 Capricorn Way, San Diego, CA 92126",92126,9608 Capricorn Way,1636.0,3.0,4.0,32.92544,-117.12002,4000,Miramar College Transit Station,2.2 km,31 mins,24.3 km,21 mins,17.3 km,58 mins,H Mart,1.6 km,6 mins,13.058398454602589,123232,92126.0,0.7442857142857143
141,"9849 Caminito Marlock APT 21, San Diego, CA 92131",92131,9849 Caminito Marlock APT 21,700.0,1.0,1.0,32.898006,-117.10405,2300,Miramar College Transit Station,3.1 km,43 mins,14.0 km,20 mins,15.2 km,1 hour 16 mins,H Mart,4.8 km,7 mins,13.928740466183887,181281,92131.0,0.44791005291005287
142,"12634 Fiorenza Ln Unit 241, San Diego, CA 92128",92128,12634 Fiorenza Ln Unit 241,956.0,2.0,2.0,32.947655,-117.09339,3100,Miramar College Transit Station,6.6 km,1 hour 34 mins,25.2 km,20 mins,26.8 km,1 hour 19 mins,H Mart,6.1 km,8 mins,15.977615942630292,128150,92128.0,0.918994708994709
143,"8181 Jade Coast Rd, San Diego, CA 92126",92126,8181 Jade Coast Rd,2400.0,3.0,6.0,32.901848,-117.14753,5900,Miramar College Transit Station,3.4 km,49 mins,12.2 km,17 mins,15.3 km,53 mins,H Mart,4.1 km,10 mins,9.940131861462604,123232,92126.0,0.7442857142857143
144,"17617 Pomerado Rd Unit 215, San Diego, CA 92128",92128,17617 Pomerado Rd Unit 215,1118.0,2.0,2.0,33.034233,-117.059685,3900,Rancho Bernardo,4.5 km,1 hour 5 mins,34.6 km,26 mins,38.4 km,1 hour 55 mins,Vons,3.4 km,6 mins,20.514505933807467,128150,92128.0,0.918994708994709
145,"10536 Greenford Dr, San Diego, CA 92126",92126,10536 Greenford Dr,1350.0,2.0,4.0,32.91119,-117.13234,4195,Miramar College Transit Station,1.3 km,19 mins,15.2 km,19 mins,16.3 km,57 mins,H Mart,2.1 km,7 mins,11.525874845264491,123232,92126.0,0.7442857142857143
146,"17637 Pomerado Rd Unit 123, San Diego, CA 92128",92128,17637 Pomerado Rd Unit 123,980.0,2.0,2.0,33.034664,-117.05955,3900,Rancho Bernardo,4.6 km,1 hour 6 mins,37.4 km,26 mins,38.5 km,1 hour 56 mins,Vons,3.5 km,7 mins,20.537948373731982,128150,92128.0,0.918994708994709
147,"17908 Valladares Dr, San Diego, CA 92127",92127,17908 Valladares Dr,1326.0,2.0,3.0,33.037033,-117.078705,4190,Rancho Bernardo,2.3 km,35 mins,32.5 km,23 mins,34.1 km,1 hour 32 mins,Vons,2.7 km,7 mins,18.87633192583645,179220,92127.0,0.4484391534391534
148,"9230 Island Pine Way, San Diego, CA 92127",92127,9230 Island Pine Way,4933.0,6.0,5.0,33.024845,-117.129265,9988,Rancho Bernardo,6.0 km,1 hour 24 mins,28.6 km,24 mins,,,Jimbo's - 4S Ranch,2.0 km,5 mins,13.97214533985944,179220,92127.0,0.4484391534391534
149,"10258 Black Mountain Rd APT 146, San Diego, CA 92126",92126,10258 Black Mountain Rd APT 146,913.0,2.0,2.0,32.903793,-117.12481,2895,Miramar College Transit Station,1.5 km,22 mins,13.0 km,19 mins,14.2 km,50 mins,H Mart,3.3 km,7 mins,12.07024080796474,123232,92126.0,0.7442857142857143
150,"14396 Savannah Ct, San Diego, CA 92128",92128,14396 Savannah Ct,1202.0,3.0,2.0,32.97562,-117.07643,3795,Rancho Bernardo,7.2 km,1 hour 40 mins,26.3 km,20 mins,29.3 km,1 hour 25 mins,Trader Joe's,1.6 km,5 mins,17.740962907229548,128150,92128.0,0.918994708994709
151,"9462 Pipilo St, San Diego, CA 92129",92129,9462 Pipilo St,1876.0,3.0,4.0,32.953426,-117.1248,5200,Miramar College Transit Station,5.3 km,1 hour 15 mins,22.5 km,18 mins,24.7 km,1 hour 20 mins,H Mart,4.7 km,9 mins,13.082429732581366,152626,92129.0,0.5082010582010582
152,"11205 Nalco St, San Diego, CA 92126",92126,11205 Nalco St,1977.0,3.0,5.0,32.92518,-117.144966,5200,Miramar College Transit Station,3.5 km,50 mins,14.4 km,16 mins,15.5 km,54 mins,H Mart,3.2 km,8 mins,10.861626222560426,123232,92126.0,0.7442857142857143
153,"17440 Plaza Cerado #71, San Diego, CA 92128",92128,17440 Plaza Cerado #71,1455.0,2.0,2.0,33.028236,-117.055855,3890,Rancho Bernardo,4.3 km,1 hour 1 min,34.5 km,26 mins,38.2 km,1 hour 51 mins,Vons,3.3 km,7 mins,20.719431412200283,128150,92128.0,0.918994708994709
154,"18106 Chieftain Ct, San Diego, CA 92127",92127,18106 Chieftain Ct,2892.0,3.0,4.0,33.039852,-117.085106,6000,Rancho Bernardo,3.0 km,44 mins,33.1 km,25 mins,34.8 km,1 hour 41 mins,Vons,3.3 km,8 mins,18.392140761934076,179220,92127.0,0.4484391534391534
155,"9929 Erma Rd Unit 204, San Diego, CA 92131",92131,9929 Erma Rd Unit 204,850.0,2.0,2.0,32.91885,-117.11259,2600,Miramar College Transit Station,1.7 km,23 mins,25.9 km,20 mins,17.4 km,58 mins,H Mart,1.4 km,5 mins,13.517708028828023,181281,92131.0,0.44791005291005287
156,"11494 Windy Summit Pl, San Diego, CA 92127",92127,11494 Windy Summit Pl,2410.0,3.0,5.0,33.002785,-117.08342,6995,Rancho Bernardo,3.2 km,43 mins,31.3 km,22 mins,32.8 km,1 hour 29 mins,Trader Joe's,5.0 km,10 mins,17.75134189366483,179220,92127.0,0.4484391534391534
157,"18692 Caminito Cantilena Unit 220, San Diego, CA 92128",92128,18692 Caminito Cantilena Unit 220,1056.0,2.0,2.0,33.049427,-117.07181,2895,Rancho Bernardo,5.7 km,1 hour 24 mins,36.1 km,26 mins,38.8 km,2 hours 33 mins,Vons,6.6 km,11 mins,19.811376933781705,128150,92128.0,0.918994708994709
158,"9888 Dauntless St, San Diego, CA 92126",92126,9888 Dauntless St,1122.0,2.0,3.0,32.92637,-117.11819,3650,Miramar College Transit Station,1.6 km,23 mins,24.5 km,20 mins,17.3 km,58 mins,H Mart,1.1 km,4 mins,13.253104825131686,123232,92126.0,0.7442857142857143
159,"18771 Caminito Pasadero Unit 67, San Diego, CA 92128",92128,18771 Caminito Pasadero Unit 67,1696.0,3.0,4.0,33.051987,-117.068146,4660,Rancho Bernardo,5.4 km,1 hour 19 mins,35.4 km,24 mins,,,Vons,6.0 km,9 mins,20.198705507405073,128150,92128.0,0.918994708994709
160,"17657 Pomerado Rd Unit 52, San Diego, CA 92128",92128,17657 Pomerado Rd Unit 52,980.0,2.0,2.0,33.035133,-117.058846,2995,Rancho Bernardo,4.7 km,1 hour 7 mins,37.5 km,26 mins,38.6 km,1 hour 57 mins,Vons,3.6 km,7 mins,20.614017465875577,128150,92128.0,0.918994708994709
161,"La Jollan Townhomes, 2726 Torrey Pines Rd #333d36129, La Jolla, CA 92037",92037,2726 Torrey Pines Rd #333d36129,1050.0,2.0,2.0,32.852367,-117.246185,2850,Nobel Drive Station,4.6 km,1 hour 7 mins,4.0 km,7 mins,3.9 km,57 mins,Whole Foods Market,3.7 km,8 mins,1.2357652441454712,141822,92037.0,0.5500925925925926
162,"Pacific Heights Apartments, 2291 W Dunlop St #30, San Diego, CA 92111",92111,2291 W Dunlop St #30,717.0,1.0,1.0,32.78563,-117.16748,2450,Old Town,5.4 km,1 hour 11 mins,21.9 km,18 mins,20.3 km,46 mins,Whole Foods Market,5.5 km,9 mins,8.07103813517105,95081,92111.0,3.3380820105820104
163,"12507 El Camino Real Unit B, San Diego, CA 92130",92130,12507 El Camino Real Unit B,1351.0,3.0,2.0,32.946,-117.23775,3800,Sorrento Valley,6.0 km,1 hour 21 mins,10.7 km,12 mins,,,Whole Foods Market,5.9 km,10 mins,2.7325025371663036,201731,92130.0,0.42060846560846554
164,"10545 Kemerton Rd, San Diego, CA 92126",92126,10545 Kemerton Rd,1482.0,3.0,3.0,32.908817,-117.16824,4200,Miramar College Transit Station,5.0 km,1 hour 10 mins,11.6 km,14 mins,12.1 km,33 mins,H Mart,5.3 km,11 mins,8.21164190723618,123232,92126.0,0.7442857142857143
165,"10267 Kamwood Pl, San Diego, CA 92126",92126,10267 Kamwood Pl,1134.0,2.0,3.0,32.90499,-117.167404,3995,Miramar College Transit Station,5.1 km,1 hour 11 mins,10.7 km,16 mins,12.8 km,43 mins,H Mart,5.6 km,13 mins,8.181115724058996,123232,92126.0,0.7442857142857143
166,"13613 Tiverton Rd, San Diego, CA 92130",92130,13613 Tiverton Rd,1525.0,3.0,3.0,32.961243,-117.235085,4475,Solana Beach,8.1 km,1 hour 49 mins,12.8 km,13 mins,,,Whole Foods Market,5.5 km,9 mins,2.8761074410483634,201731,92130.0,0.42060846560846554
167,"13155 Portofino Dr, Del Mar, CA 92014",92014,13155 Portofino Dr,2167.0,3.0,4.0,32.93895,-117.24236,7145,Sorrento Valley,5.2 km,1 hour 12 mins,9.9 km,10 mins,12.2 km,1 hour 1 min,Whole Foods Market,5.5 km,9 mins,2.632184390543016,194528,,
168,"6012 Village Center Loop #32, San Diego, CA 92130",92130,6012 Village Center Loop #32,2032.0,4.0,4.0,32.962654,-117.186424,5100,Via De La Valle & El Camino Real (N),7.3 km,1 hour 38 mins,14.9 km,14 mins,,,Trader Joe's,0.8 km,4 mins,7.380331134840159,201731,92130.0,0.42060846560846554
169,"13073 Dressage Ln, San Diego, CA 92130",92130,13073 Dressage Ln,4000.0,6.0,5.0,32.955856,-117.20003,8995,Sorrento Valley - Del Mar,6.1 km,1 hour 20 mins,15.4 km,13 mins,,,Trader Joe's,1.7 km,4 mins,6.0626427960893405,201731,92130.0,0.42060846560846554
170,"3560 Torrey View Ct, San Diego, CA 92130",92130,3560 Torrey View Ct,2918.0,4.0,4.0,32.92164,-117.234474,6350,UCSD Central Campus Station,6.2 km,1 hour 27 mins,7.7 km,10 mins,10.0 km,1 hour 34 mins,Jimbo’s - Carmel Valley,5.0 km,9 mins,2.550631708760998,201731,92130.0,0.42060846560846554
171,"7724 Acama St, San Diego, CA 92126",92126,7724 Acama St,1200.0,2.0,3.0,32.926838,-117.15597,3750,Miramar College Transit Station,4.6 km,1 hour 6 mins,12.4 km,14 mins,16.1 km,1 hour 3 mins,H Mart,5.2 km,11 mins,9.893602621032088,123232,92126.0,0.7442857142857143
172,"10622 Golden Willow Trl #126, San Diego, CA 92130",92130,10622 Golden Willow Trl #126,1274.0,3.0,2.0,32.92783,-117.19943,3895,Sorrento Valley,5.6 km,1 hour 16 mins,10.6 km,12 mins,,,Trader Joe's,6.8 km,9 mins,5.859810173990005,201731,92130.0,0.42060846560846554
173,"13027 Caminito Bautizo, San Diego, CA 92130",92130,13027 Caminito Bautizo,1800.0,3.0,3.0,32.954647,-117.21514,4950,Sorrento Valley - Del Mar,5.2 km,1 hour 9 mins,13.1 km,13 mins,,,Whole Foods Market,7.4 km,13 mins,4.652284757555194,201731,92130.0,0.42060846560846554
174,"11042 Corte Mar De Delfinas, San Diego, CA 92130",92130,11042 Corte Mar De Delfinas,2897.0,4.0,4.0,32.91686,-117.22588,6595,UCSD Central Campus Station,5.5 km,1 hour 18 mins,8.0 km,9 mins,42.2 km,1 hour 27 mins,Jimbo’s - Carmel Valley,5.2 km,8 mins,3.3975109890823907,201731,92130.0,0.42060846560846554
175,"13444 Tiverton Rd, San Diego, CA 92130",92130,13444 Tiverton Rd,1203.0,3.0,2.0,32.960896,-117.23613,3750,Solana Beach,8.1 km,1 hour 48 mins,12.7 km,13 mins,,,Whole Foods Market,5.5 km,9 mins,2.7722184581570146,201731,92130.0,0.42060846560846554
176,"11358 Nahama Ln, San Diego, CA 92130",92130,11358 Nahama Ln,2402.0,3.0,4.0,32.92454,-117.21556,5850,UCSD Health La Jolla Station,7.7 km,1 hour 47 mins,9.8 km,12 mins,,,Trader Joe's,8.4 km,12 mins,4.326645171163853,201731,92130.0,0.42060846560846554
177,"13563 Old El Camino Real #Id1295157p, San Diego, CA 92130",92130,13563 Old El Camino Real #Id1295157p,3110.0,4.0,5.0,32.96387,-117.2326,13710,Solana Beach,7.3 km,1 hour 40 mins,13.3 km,14 mins,,,Whole Foods Market,5.2 km,9 mins,3.179715263192161,201731,92130.0,0.42060846560846554
178,"3601 Bernwood Pl Unit 67, San Diego, CA 92130",92130,3601 Bernwood Pl Unit 67,594.0,1.0,1.0,32.955555,-117.23585,2850,Sorrento Valley - Del Mar,3.7 km,49 mins,12.0 km,12 mins,,,Whole Foods Market,5.1 km,8 mins,2.7204870230742757,201731,92130.0,0.42060846560846554
179,"3717 Ruette De Vl, San Diego, CA 92130",92130,3717 Ruette De Vl,1236.0,3.0,2.0,32.942825,-117.235,4450,Sorrento Valley,5.8 km,1 hour 18 mins,11.0 km,11 mins,,,Whole Foods Market,5.7 km,10 mins,3.1094740544705006,201731,92130.0,0.42060846560846554
180,"10990 Lopez Ridge Way, San Diego, CA 92121",92121,10990 Lopez Ridge Way,3023.0,3.0,4.0,32.915665,-117.18522,5400,Sorrento Valley,4.7 km,1 hour 3 mins,10.2 km,12 mins,14.6 km,1 hour 10 mins,Vons,6.8 km,9 mins,6.99502226236202,135795,92121.0,3.6518253968253975
181,"5233 Seagrove Pl, San Diego, CA 92130",92130,5233 Seagrove Pl,3676.0,5.0,5.0,32.961594,-117.20453,8000,Sorrento Valley - Del Mar,6.3 km,1 hour 25 mins,15.8 km,14 mins,,,Whole Foods Market,8.1 km,13 mins,5.689294333888623,201731,92130.0,0.42060846560846554
182,"3504 Seahorn Cir, San Diego, CA 92130",92130,3504 Seahorn Cir,1097.0,2.0,2.0,32.954273,-117.23953,3850,Sorrento Valley - Del Mar,3.3 km,43 mins,11.6 km,11 mins,,,Whole Foods Market,4.7 km,7 mins,2.3778231228254043,201731,92130.0,0.42060846560846554
183,"12550 Carmel Creek Rd Unit 102, San Diego, CA 92130",92130,12550 Carmel Creek Rd Unit 102,864.0,2.0,2.0,32.94408,-117.230705,3250,Sorrento Valley,6.0 km,1 hour 20 mins,10.5 km,10 mins,,,Whole Foods Market,6.4 km,10 mins,3.4226673504980427,201731,92130.0,0.42060846560846554
184,"11525 Caminito La Bar APT 56, San Diego, CA 92126",92126,11525 Caminito La Bar APT 56,1101.0,2.0,2.0,32.926296,-117.16148,3149,Miramar College Transit Station,5.6 km,1 hour 19 mins,12.0 km,15 mins,17.6 km,1 hour 24 mins,H Mart,6.1 km,13 mins,9.37681491550706,123232,92126.0,0.7442857142857143
185,"12376 Carmel Country Rd #J101, San Diego, CA 92130",92130,12376 Carmel Country Rd #J101,1201.0,2.0,2.0,32.946533,-117.228584,3900,Sorrento Valley,6.4 km,1 hour 25 mins,10.9 km,11 mins,,,Whole Foods Market,6.6 km,11 mins,3.525922633055686,201731,92130.0,0.42060846560846554
186,"7210 Calle Cristobal Unit 1, San Diego, CA 92126",92126,7210 Calle Cristobal Unit 1,864.0,2.0,2.0,32.922043,-117.16916,3000,Miramar College Transit Station,6.3 km,1 hour 29 mins,10.7 km,13 mins,14.6 km,1 hour 9 mins,H Mart,6.9 km,13 mins,8.646907044913934,123232,92126.0,0.7442857142857143
187,"6680 Canopy Ridge Ln Unit 4, San Diego, CA 92121",92121,6680 Canopy Ridge Ln Unit 4,1264.0,2.0,2.0,32.916077,-117.17889,3600,Sorrento Valley,5.7 km,1 hour 17 mins,12.1 km,16 mins,13.4 km,53 mins,Vons,4.5 km,8 mins,7.550844966941208,135795,92121.0,3.6518253968253975
188,"14073 Mira Montana Dr, Del Mar, CA 92014",92014,14073 Mira Montana Dr,825.0,2.0,2.0,32.952583,-117.24859,5500,Solana Beach,6.6 km,1 hour 32 mins,11.2 km,11 mins,12.9 km,52 mins,Whole Foods Market,5.0 km,9 mins,1.55453903060776,194528,,
189,"6680 Canopy Ridge Ln Unit 1, San Diego, CA 92121",92121,6680 Canopy Ridge Ln Unit 1,1465.0,2.0,3.0,32.91601,-117.1785,4150,Sorrento Valley,5.6 km,1 hour 15 mins,12.0 km,16 mins,13.3 km,52 mins,Vons,4.4 km,7 mins,7.581125105391575,135795,92121.0,3.6518253968253975
190,"7335 Calle Cristobal, San Diego, CA 92126",92126,7335 Calle Cristobal,1114.0,2.0,2.0,32.922035,-117.1667,3400,Miramar College Transit Station,6.2 km,1 hour 28 mins,11.0 km,13 mins,14.9 km,1 hour 12 mins,H Mart,6.7 km,13 mins,8.860778766971206,123232,92126.0,0.7442857142857143
191,"13777 Rosecroft Way, San Diego, CA 92130",92130,13777 Rosecroft Way,3690.0,4.0,4.0,32.96999,-117.23763,16500,Solana Beach,6.8 km,1 hour 33 mins,13.7 km,14 mins,25.1 km,1 hour 41 mins,Whole Foods Market,4.4 km,8 mins,3.049363540981563,201731,92130.0,0.42060846560846554
192,"13655 Ruette Le Parc Unit C, Del Mar, CA 92014",92014,13655 Ruette Le Parc Unit C,1164.0,2.0,2.0,32.947906,-117.24474,3350,Sorrento Valley - Del Mar,2.7 km,36 mins,10.7 km,10 mins,13.0 km,55 mins,Whole Foods Market,4.6 km,8 mins,2.0483793994613713,194528,,
193,"13350 Pacific Pl Floor 2-ID57, San Diego, CA 92130",92130,13350 Pacific Pl Floor 2-ID57,999.0,2.0,2.0,32.962585,-117.18851,5450,Via De La Valle & El Camino Real (N),7.1 km,1 hour 35 mins,14.8 km,14 mins,,,Trader Joe's,0.4 km,2 mins,7.186140267619975,201731,92130.0,0.42060846560846554
194,"Antone Apartments, 4052 1/2 Brant St #4038-00, San Diego, CA 92103",92103,4052 1/2 Brant St #4038-00,525.0,1.0,1.0,32.751045,-117.16763,2150,Old Town,3.5 km,47 mins,19.7 km,17 mins,18.9 km,42 mins,Whole Foods Market,1.8 km,7 mins,8.072802361527005,96887,92103.0,2.0538148148148148
195,"Muir Place, 4850 Muir Ave APT 11, San Diego, CA 92107",92107,4850 Muir Ave APT 11,1000.0,2.0,2.0,32.749958,-117.24432,3995,Old Town,4.7 km,1 hour 7 mins,18.6 km,19 mins,20.0 km,52 mins,Trader Joe's,4.9 km,9 mins,1.0281068390784185,107262,92107.0,1.7301410934744268
196,"2160 Via Mar Valle, Del Mar, CA 92014",92014,2160 Via Mar Valle,4534.0,6.0,5.0,32.939,-117.25694,40000,Sorrento Valley,5.8 km,1 hour 18 mins,10.5 km,12 mins,10.6 km,39 mins,Whole Foods Market,7.0 km,11 mins,1.931556097722047,194528,,
197,"13002 Requlo Pl, San Diego, CA 92130",92130,13002 Requlo Pl,1476.0,3.0,3.0,32.96135,-117.185326,5000,Via De La Valle & El Camino Real (N),7.5 km,1 hour 40 mins,15.0 km,14 mins,,,Trader Joe's,0.9 km,4 mins,7.467050625283927,201731,92130.0,0.42060846560846554
198,"14707 Polo Point, Del Mar, CA 92014",92014,14707 Polo Point,3950.0,5.0,4.0,32.983353,-117.22176,22500,Solana Beach,5.9 km,1 hour 21 mins,17.2 km,16 mins,23.7 km,1 hour 15 mins,Whole Foods Market,3.0 km,7 mins,4.911223422786769,194528,,
199,"13760 Portofino Dr, Del Mar, CA 92014",92014,13760 Portofino Dr,750.0,1.0,1.0,32.947823,-117.24638,2550,Sorrento Valley - Del Mar,2.8 km,36 mins,10.6 km,9 mins,12.8 km,53 mins,Whole Foods Market,4.5 km,7 mins,1.911901990229672,194528,,
200,"6714 Lopez Canyon Way, San Diego, CA 92126",92126,6714 Lopez Canyon Way,2155.0,3.0,4.0,32.918083,-117.17734,5300,Sorrento Valley,5.8 km,1 hour 17 mins,10.3 km,12 mins,13.9 km,58 mins,Trader Joe's,16.1 km,17 mins,7.774947091877508,123232,92126.0,0.7442857142857143
201,"12530 Carmel Creek Rd Unit 127, San Diego, CA 92130",92130,12530 Carmel Creek Rd Unit 127,638.0,1.0,1.0,32.943756,-117.23139,2700,Sorrento Valley,5.9 km,1 hour 19 mins,10.7 km,11 mins,,,Whole Foods Market,6.1 km,10 mins,3.3761650411324573,201731,92130.0,0.42060846560846554
202,"10512 Cara Cara Dr, San Diego, CA 92126",92126,10512 Cara Cara Dr,2050.0,4.0,3.0,32.896408,-117.16212,8100,Miramar College Transit Station,6.8 km,1 hour 35 mins,9.6 km,16 mins,14.1 km,1 hour 3 mins,H Mart,7.4 km,14 mins,8.512278761872905,123232,92126.0,0.7442857142857143
203,"10194 Wateridge Cir Unit 152, San Diego, CA 92121",92121,10194 Wateridge Cir Unit 152,1390.0,3.0,3.0,32.899647,-117.20496,4300,Nobel Drive Station,7.3 km,1 hour 45 mins,7.2 km,11 mins,10.5 km,47 mins,Whole Foods Market,7.0 km,13 mins,4.635498526314391,135795,92121.0,3.6518253968253975
204,"14291 Bronzite Way, San Diego, CA 92126",92126,14291 Bronzite Way,2177.0,3.0,4.0,32.89434,-117.15752,5490,Miramar College Transit Station,5.6 km,1 hour 19 mins,9.8 km,16 mins,15.0 km,1 hour 15 mins,H Mart,6.4 km,14 mins,8.920010979768128,123232,92126.0,0.7442857142857143
205,"3877 Pell Pl, San Diego, CA 92130",92130,3877 Pell Pl,1052.0,2.0,2.0,32.949062,-117.23129,5500,Sorrento Valley - Del Mar,3.1 km,41 mins,11.3 km,14 mins,,,Whole Foods Market,6.0 km,11 mins,3.2139203319411367,201731,92130.0,0.42060846560846554
206,"3895 Creststone Pl, San Diego, CA 92130",92130,3895 Creststone Pl,1405.0,3.0,2.0,32.959717,-117.23307,4200,Sorrento Valley - Del Mar,4.2 km,56 mins,12.8 km,14 mins,,,Whole Foods Market,5.8 km,9 mins,3.024920054995576,201731,92130.0,0.42060846560846554
207,"16592 Artesian Hills Ct, San Diego, CA 92127",92127,16592 Artesian Hills Ct,860.0,1.0,2.0,33.01592,-117.15953,6800,Del Dios Hwy. & Bing Crosby Bl.,4.7 km,1 hour 7 mins,27.3 km,23 mins,,,Jimbo's - 4S Ranch,5.2 km,8 mins,10.98947220987304,179220,92127.0,0.4484391534391534
208,"4460 Calle Mar De Armonia, San Diego, CA 92130",92130,4460 Calle Mar De Armonia,2727.0,4.0,5.0,32.922497,-117.21931,6500,UCSD Health La Jolla Station,6.9 km,1 hour 37 mins,8.6 km,11 mins,,,Jimbo’s - Carmel Valley,5.2 km,8 mins,3.9666936703272735,201731,92130.0,0.42060846560846554
209,"10985 Parkdale Ave, San Diego, CA 92126",92126,10985 Parkdale Ave,1500.0,3.0,3.0,32.91933,-117.15655,7900,Miramar College Transit Station,4.2 km,59 mins,13.7 km,16 mins,14.6 km,58 mins,H Mart,4.8 km,11 mins,9.617376576307077,123232,92126.0,0.7442857142857143
210,"10660 Dabney Dr APT 133, San Diego, CA 92126",92126,10660 Dabney Dr APT 133,598.0,1.0,1.0,32.91009,-117.16018,2300,Miramar College Transit Station,4.2 km,59 mins,12.5 km,16 mins,13.7 km,48 mins,H Mart,4.9 km,11 mins,8.974271808279264,123232,92126.0,0.7442857142857143
211,"10963 Vista Santa Fe Ln, San Diego, CA 92126",92126,10963 Vista Santa Fe Ln,2155.0,3.0,4.0,32.915924,-117.17525,5400,Sorrento Valley,5.9 km,1 hour 19 mins,10.3 km,13 mins,13.6 km,55 mins,H Mart,7.8 km,14 mins,7.855985661463769,123232,92126.0,0.7442857142857143
212,"136-12213 Carmel Vista Rd #136, San Diego, CA 92130",92130,136-12213 Carmel Vista Rd #136,1100.0,2.0,2.0,32.937393,-117.23606,3900,Sorrento Valley,4.8 km,1 hour 6 mins,9.3 km,10 mins,,,Trader Joe's,6.6 km,9 mins,2.9626718370554626,201731,92130.0,0.42060846560846554
213,"3765 Carmel View Rd Unit 3, San Diego, CA 92130",92130,3765 Carmel View Rd Unit 3,1360.0,3.0,2.0,32.94015,-117.23205,3950,Sorrento Valley,5.5 km,1 hour 15 mins,10.2 km,10 mins,,,Whole Foods Market,7.7 km,10 mins,3.4456452432621556,201731,92130.0,0.42060846560846554
214,"12585 Ruette Alliante Unit 155, San Diego, CA 92130",92130,12585 Ruette Alliante Unit 155,944.0,2.0,2.0,32.945274,-117.23482,3800,Sorrento Valley,6.0 km,1 hour 20 mins,10.5 km,12 mins,,,Whole Foods Market,5.9 km,10 mins,3.016580411652203,201731,92130.0,0.42060846560846554
215,"10584 Bandell Ct, San Diego, CA 92126",92126,10584 Bandell Ct,1275.0,2.0,3.0,32.908474,-117.1602,5400,Miramar College Transit Station,4.2 km,1 hour 0 mins,12.7 km,16 mins,12.7 km,42 mins,H Mart,4.6 km,10 mins,8.92614979268055,123232,92126.0,0.7442857142857143
216,"10303 Darden Rd, San Diego, CA 92126",92126,10303 Darden Rd,1284.0,2.0,3.0,32.903347,-117.16335,4200,Miramar College Transit Station,4.6 km,1 hour 5 mins,11.0 km,17 mins,12.6 km,41 mins,H Mart,5.2 km,12 mins,8.513177249585686,123232,92126.0,0.7442857142857143
217,"5768 Cape Jewels Trl, San Diego, CA 92130",92130,5768 Cape Jewels Trl,2056.0,3.0,3.0,32.961838,-117.19266,6200,Via De La Valle & El Camino Real (N),7.0 km,1 hour 33 mins,15.0 km,14 mins,,,Trader Joe's,0.8 km,3 mins,6.792004217631299,201731,92130.0,0.42060846560846554
218,"8164 Rose Quartz Cir, San Diego, CA 92126",92126,8164 Rose Quartz Cir,2464.0,4.0,4.0,32.896996,-117.16148,5999,Miramar College Transit Station,6.9 km,1 hour 37 mins,9.7 km,16 mins,14.1 km,1 hour 3 mins,H Mart,7.4 km,14 mins,8.578643406594974,123232,92126.0,0.7442857142857143
219,"3555 Caminito El Rincon Unit 226, San Diego, CA 92130",92130,3555 Caminito El Rincon Unit 226,944.0,2.0,2.0,32.944386,-117.23672,3500,Sorrento Valley,5.9 km,1 hour 20 mins,10.5 km,12 mins,,,Whole Foods Market,5.7 km,10 mins,2.890689488821631,201731,92130.0,0.42060846560846554
220,"13226 Corte Villanueva, San Diego, CA 92129",92129,13226 Corte Villanueva,2101.0,3.0,4.0,32.960472,-117.160446,5000,Rancho Penasquitos Bl & Carmel Mountain Rd,5.3 km,1 hour 17 mins,19.4 km,16 mins,,,Trader Joe's,7.5 km,10 mins,9.77390398604613,152626,92129.0,0.5082010582010582
221,"3845 Elijah Ct Unit 625, San Diego, CA 92130",92130,3845 Elijah Ct Unit 625,704.0,1.0,1.0,32.946083,-117.2331,2750,Sorrento Valley,6.3 km,1 hour 24 mins,10.9 km,13 mins,,,Whole Foods Market,6.2 km,11 mins,3.1373322553289604,201731,92130.0,0.42060846560846554
222,"7063 Santa Fe Canyon Pl, San Diego, CA 92129",92129,7063 Santa Fe Canyon Pl,3246.0,4.0,5.0,32.958813,-117.16598,6400,Rancho Penasquitos Bl & Carmel Mountain Rd,5.8 km,1 hour 23 mins,20.2 km,17 mins,,,Trader Joe's,8.3 km,11 mins,9.248431532823613,152626,92129.0,0.5082010582010582
223,"6574 Dandelion Way, San Diego, CA 92130",92130,6574 Dandelion Way,2007.0,3.0,4.0,32.966854,-117.1791,9000,Via De La Valle & El Camino Real (N),8.2 km,1 hour 49 mins,16.0 km,15 mins,,,Trader Joe's,1.9 km,5 mins,8.121899823135298,201731,92130.0,0.42060846560846554
224,"5412 Calle Blanca Trl, San Diego, CA 92130",92130,5412 Calle Blanca Trl,3611.0,5.0,5.0,32.96845,-117.19806,8500,Via De La Valle & El Camino Real (N),6.5 km,1 hour 26 mins,15.7 km,15 mins,,,Trader Joe's,1.5 km,5 mins,6.421835771826928,201731,92130.0,0.42060846560846554
225,"3738 Mykonos Ln Unit 125, San Diego, CA 92130",92130,3738 Mykonos Ln Unit 125,1231.0,3.0,3.0,32.948612,-117.22984,3995,Sorrento Valley - Del Mar,3.0 km,39 mins,11.2 km,12 mins,,,Whole Foods Market,6.9 km,13 mins,3.3566837556000433,201731,92130.0,0.42060846560846554
226,"3544 Caminito El Rincon Unit 48, San Diego, CA 92130",92130,3544 Caminito El Rincon Unit 48,944.0,2.0,2.0,32.94502,-117.23784,3475,Sorrento Valley,5.8 km,1 hour 19 mins,10.4 km,12 mins,,,Whole Foods Market,5.6 km,9 mins,2.7665841733194574,201731,92130.0,0.42060846560846554
227,"Elan Sandrock Place, 3443 Sandrock Rd, San Diego, CA 92123",92123,3443 Sandrock Rd #11239061,600.0,1.0,1.0,32.805298,-117.13975,2295,Mission Valley Center Station,5.2 km,1 hour 10 mins,20.8 km,17 mins,26.0 km,1 hour 7 mins,H Mart Balboa,7.0 km,8 mins,10.822521376608094,121856,92123.0,1.4509082892416227
228,"Village Terrace, 4550 Vandever Ave #29, San Diego, CA 92120",92120,4550 Vandever Ave #29,700.0,1.0,1.0,32.787933,-117.096,1995,SDSU Station,6.3 km,1 hour 34 mins,24.8 km,21 mins,27.7 km,1 hour 13 mins,Vons,7.0 km,10 mins,14.686465209669077,114579,92120.0,1.4088977072310405
229,"Adobe Falls Village Apartments, 5360 Adobe Falls Rd Unit 8, San Diego, CA 92120",92120,5360 Adobe Falls Rd Unit 8,1000.0,1.0,2.0,32.78206,-117.0834,2295,SDSU Station,6.1 km,1 hour 30 mins,27.2 km,20 mins,27.6 km,1 hour 12 mins,Northgate González Market,6.9 km,12 mins,15.7779143104479,114579,92120.0,1.4088977072310405
230,"4941 Baja Ct, San Diego, CA 92115",92115,4941 Baja Ct,1492.0,2.0,4.0,32.76816,-117.07496,5700,SDSU Station,1.4 km,21 mins,28.5 km,22 mins,30.4 km,1 hour 16 mins,Northgate González Market,3.0 km,8 mins,16.497205306365856,75178,92115.0,1.351058201058201
231,"8300 Station Village Ln Unit 11, San Diego, CA 92108",92108,8300 Station Village Ln Unit 11,2102.0,2.0,3.0,32.773773,-117.14584,4700,Fashion Valley Station,2.6 km,35 mins,21.7 km,17 mins,22.0 km,50 mins,Whole Foods Market,5.4 km,7 mins,9.886293059186826,101704,92108.0,21.67928571428571
232,"3282 Berger Ave Unit F1, San Diego, CA 92123",92123,3282 Berger Ave Unit F1,1036.0,2.0,2.0,32.803528,-117.15254,2980,Fashion Valley Station,5.9 km,1 hour 18 mins,19.4 km,17 mins,22.9 km,57 mins,H Mart Balboa,3.1 km,9 mins,9.612318719765852,121856,92123.0,1.4509082892416227
233,"6878 Navajo Rd Unit 74, San Diego, CA 92119",92119,6878 Navajo Rd Unit 74,912.0,2.0,2.0,32.80418,-117.04791,2600,SDSU Station,5.2 km,1 hour 11 mins,32.5 km,24 mins,34.6 km,1 hour 20 mins,Trader Joe's,5.8 km,12 mins,19.363995600341024,115600,92119.0,0.6551851851851851
234,"6930 Hyde Park Dr Unit 327, San Diego, CA 92119",92119,6930 Hyde Park Dr Unit 327,688.0,1.0,1.0,32.802483,-117.0473,2250,SDSU Station,5.4 km,1 hour 13 mins,32.7 km,26 mins,34.9 km,1 hour 21 mins,Trader Joe's,5.6 km,11 mins,19.410574058152104,115600,92119.0,0.6551851851851851
235,"5737 Dorothy Dr, San Diego, CA 92115",92115,5737 Dorothy Dr,1650.0,2.0,5.0,32.768772,-117.07241,8000,SDSU Station,0.7 km,9 mins,28.5 km,23 mins,29.7 km,1 hour 4 mins,Northgate González Market,4.1 km,9 mins,16.735510992272026,75178,92115.0,1.351058201058201
236,"8511 Fensmuir St, San Diego, CA 92123",92123,8511 Fensmuir St,1200.0,2.0,3.0,32.806107,-117.14404,5200,Mission Valley Center Station,5.5 km,1 hour 13 mins,21.2 km,18 mins,17.3 km,1 hour 4 mins,H Mart Balboa,3.1 km,8 mins,10.436124387893054,121856,92123.0,1.4509082892416227
237,"6261 Mary Lane Dr, San Diego, CA 92115",92115,6261 Mary Lane Dr,1800.0,3.0,4.0,32.76971,-117.06513,5995,SDSU Station,0.9 km,12 mins,30.3 km,24 mins,29.9 km,1 hour 7 mins,Northgate González Market,3.8 km,8 mins,17.416522835509237,75178,92115.0,1.351058201058201
238,"5942 Caminito Deporte, San Diego, CA 92108",92108,5942 Caminito Deporte,1374.0,2.0,3.0,32.78176,-117.10934,4350,SDSU Station,8.4 km,2 hours 2 mins,26.2 km,20 mins,25.0 km,53 mins,Trader Joe's,6.8 km,8 mins,13.361959053790866,101704,92108.0,21.67928571428571
239,"5049 Art St, San Diego, CA 92115",92115,5049 Art St,1200.0,2.0,4.0,32.769382,-117.06325,5195,SDSU Station,1.1 km,15 mins,30.4 km,24 mins,30.0 km,1 hour 9 mins,Northgate González Market,3.8 km,8 mins,17.592111142350305,75178,92115.0,1.351058201058201
240,"10461-21 Harlow Cir, San Diego, CA 92108",92108,10461-21 Harlow Cir,1708.0,4.0,3.0,32.785854,-117.11137,5250,SDSU Station,8.0 km,1 hour 57 mins,24.1 km,20 mins,25.4 km,58 mins,Trader Joe's,7.3 km,10 mins,13.23133359269955,101704,92108.0,21.67928571428571
241,"5311 Hewlett Dr, San Diego, CA 92115",92115,5311 Hewlett Dr,1750.0,3.0,5.0,32.773792,-117.08107,7229,SDSU Station,1.4 km,20 mins,28.4 km,22 mins,30.4 km,1 hour 15 mins,Northgate González Market,4.4 km,9 mins,15.935805389119883,75178,92115.0,1.351058201058201
242,"13625 Mango Dr, Del Mar, CA 92014",92014,13625 Mango Dr,1846.0,2.0,4.0,32.94638,-117.246864,6600,Sorrento Valley - Del Mar,2.6 km,35 mins,10.9 km,10 mins,12.9 km,53 mins,Whole Foods Market,4.7 km,8 mins,1.944833707366285,194528,,
243,"6645 Canopy Ridge Ln Unit 15, San Diego, CA 92121",92121,6645 Canopy Ridge Ln Unit 15,1541.0,2.0,3.0,32.915646,-117.17962,3848,Sorrento Valley,5.7 km,1 hour 17 mins,12.2 km,16 mins,13.5 km,54 mins,Vons,4.5 km,8 mins,7.469135818828367,135795,92121.0,3.6518253968253975
244,"7246 Rock Canyon Dr, San Diego, CA 92126",92126,7246 Rock Canyon Dr,1865.0,3.0,4.0,32.92153,-117.163826,4495,Miramar College Transit Station,5.7 km,1 hour 21 mins,13.2 km,16 mins,17.1 km,1 hour 18 mins,H Mart,6.4 km,13 mins,9.08203667249144,123232,92126.0,0.7442857142857143
245,"2714 Caminito Verdugo, Del Mar, CA 92014",92014,2714 Caminito Verdugo,1380.0,3.0,3.0,32.935146,-117.243546,4600,Sorrento Valley,4.9 km,1 hour 8 mins,9.6 km,10 mins,11.8 km,57 mins,Jimbo’s - Carmel Valley,4.0 km,8 mins,2.2593753615419976,194528,,
246,"13207 Sunset Point Way, San Diego, CA 92130",92130,13207 Sunset Point Way,3736.0,5.0,5.0,32.957573,-117.21435,7800,Sorrento Valley - Del Mar,5.2 km,1 hour 11 mins,14.0 km,15 mins,,,Whole Foods Market,7.1 km,11 mins,4.734403499651987,201731,92130.0,0.42060846560846554
247,"5365 Caminito Exquisito, San Diego, CA 92130",92130,5365 Caminito Exquisito,1912.0,3.0,4.0,32.94559,-117.203606,6900,Sorrento Valley - Del Mar,4.9 km,1 hour 5 mins,12.8 km,13 mins,,,Trader Joe's,4.9 km,9 mins,5.823351925324843,201731,92130.0,0.42060846560846554
248,"12815 Via Nestore, Del Mar, CA 92014",92014,12815 Via Nestore,3187.0,3.0,5.0,32.932823,-117.24775,16000,Sorrento Valley,4.5 km,1 hour 2 mins,9.5 km,10 mins,11.2 km,48 mins,Jimbo’s - Carmel Valley,4.0 km,8 mins,1.7949694119164423,194528,,
249,"3040 Caminito Tercer Verde, Del Mar, CA 92014",92014,3040 Caminito Tercer Verde,2444.0,3.0,3.0,32.985603,-117.244965,12500,Solana Beach,3.5 km,51 mins,15.3 km,13 mins,21.2 km,1 hour 14 mins,Whole Foods Market,1.1 km,4 mins,2.739788473350832,194528,,
250,"6277 Belmont Trail Ct, San Diego, CA 92130",92130,6277 Belmont Trail Ct,4151.0,5.0,4.0,32.93489,-117.18281,10900,Mira Mesa Bl & Lusk Bl,6.9 km,1 hour 42 mins,12.6 km,15 mins,,,Trader Joe's,7.9 km,11 mins,7.514574877496761,201731,92130.0,0.42060846560846554
251,"13853 Boquita Dr, Del Mar, CA 92014",92014,13853 Boquita Dr,1960.0,3.0,3.0,32.949574,-117.249306,6495,Sorrento Valley - Del Mar,3.2 km,42 mins,10.9 km,10 mins,12.5 km,46 mins,Whole Foods Market,4.7 km,8 mins,1.583774713064466,194528,,
252,"13053 Caminito Del Rocio, Del Mar, CA 92014",92014,13053 Caminito Del Rocio,2234.0,4.0,3.0,32.937244,-117.2563,7300,Sorrento Valley,5.6 km,1 hour 17 mins,10.3 km,11 mins,10.4 km,38 mins,Whole Foods Market,8.1 km,11 mins,1.7923711676038685,194528,,
253,"4019 Santa Nella Pl, San Diego, CA 92130",92130,4019 Santa Nella Pl,2649.0,3.0,4.0,32.94183,-117.22547,5895,Sorrento Valley,6.8 km,1 hour 32 mins,11.5 km,12 mins,,,Trader Joe's,5.5 km,9 mins,3.9686334520429978,201731,92130.0,0.42060846560846554
254,"7235 Primrose Ln, San Diego, CA 92129",92129,7235 Primrose Ln,3081.0,4.0,4.0,32.96094,-117.16289,6500,Rancho Penasquitos Bl & Carmel Mountain Rd,5.3 km,1 hour 16 mins,19.7 km,16 mins,,,Trader Joe's,7.9 km,10 mins,9.54976317760467,152626,92129.0,0.5082010582010582
255,"3752 Mykonos Ln Unit 107, San Diego, CA 92130",92130,3752 Mykonos Ln Unit 107,1202.0,3.0,2.0,32.949062,-117.2298,3600,Sorrento Valley - Del Mar,3.1 km,40 mins,11.2 km,12 mins,,,Whole Foods Market,6.9 km,13 mins,3.350103344034185,201731,92130.0,0.42060846560846554
256,"12784 Via Cortina, Del Mar, CA 92014",92014,12784 Via Cortina,1036.0,2.0,2.0,32.934162,-117.252914,8500,Sorrento Valley,4.9 km,1 hour 8 mins,9.6 km,10 mins,10.7 km,41 mins,Jimbo’s - Carmel Valley,4.1 km,8 mins,1.605403402909283,194528,,
257,"7325 Rock Canyon Dr, San Diego, CA 92126",92126,7325 Rock Canyon Dr,1765.0,3.0,4.0,32.92161,-117.16235,3995,Miramar College Transit Station,5.6 km,1 hour 19 mins,13.0 km,16 mins,17.0 km,1 hour 16 mins,H Mart,6.3 km,13 mins,9.2117771902448,123232,92126.0,0.7442857142857143
258,"12912 Carmel Creek Rd Unit 11, San Diego, CA 92130",92130,12912 Carmel Creek Rd Unit 11,1604.0,3.0,3.0,32.951286,-117.2272,4795,Sorrento Valley - Del Mar,3.5 km,46 mins,11.7 km,13 mins,,,Whole Foods Market,6.0 km,11 mins,3.5510403744982058,201731,92130.0,0.42060846560846554
259,"5259 Meadows Del Mar, San Diego, CA 92130",92130,5259 Meadows Del Mar,4941.0,6.0,5.0,32.940777,-117.20132,18000,Sorrento Valley,7.5 km,1 hour 45 mins,13.7 km,14 mins,,,Trader Joe's,5.8 km,9 mins,6.026040439417703,201731,92130.0,0.42060846560846554
260,"13161 Shalimar Pl, Del Mar, CA 92014",92014,13161 Shalimar Pl,2167.0,3.0,4.0,32.93931,-117.24363,7500,Sorrento Valley,5.3 km,1 hour 13 mins,10.1 km,11 mins,12.2 km,1 hour 2 mins,Whole Foods Market,5.6 km,9 mins,2.581978125774741,194528,,
261,"13582 Cantare Trl #A1, San Diego, CA 92130",92130,13582 Cantare Trl #A1,260.0,1.0,1.0,32.96821,-117.17455,1975,Via De La Valle & El Camino Real (N),8.6 km,1 hour 55 mins,16.9 km,16 mins,,,Trader Joe's,2.7 km,6 mins,8.565553329701679,201731,92130.0,0.42060846560846554
262,"12933 Caminito Del Canto, Del Mar, CA 92014",92014,12933 Caminito Del Canto,1689.0,3.0,3.0,32.935448,-117.25419,11000,Sorrento Valley,5.7 km,1 hour 18 mins,10.5 km,12 mins,10.5 km,39 mins,Jimbo’s - Carmel Valley,4.9 km,10 mins,1.675568859164938,194528,,
263,"10975 Vereda Sol Del Dios, San Diego, CA 92130",92130,10975 Vereda Sol Del Dios,2060.0,2.0,3.0,32.916775,-117.214966,5500,UCSD Central Campus Station,6.6 km,1 hour 32 mins,9.3 km,11 mins,12.9 km,1 hour 12 mins,Jimbo’s - Carmel Valley,6.0 km,9 mins,4.407102881565228,201731,92130.0,0.42060846560846554
264,"3335 Caminito Daniella, Del Mar, CA 92014",92014,3335 Caminito Daniella,4536.0,5.0,5.0,32.984455,-117.24157,18995,Solana Beach,4.5 km,1 hour 3 mins,17.3 km,17 mins,24.8 km,1 hour 37 mins,Whole Foods Market,3.2 km,8 mins,3.077421178707438,194528,,
265,"3575 Caminito El Rincon Unit 216, San Diego, CA 92130",92130,3575 Caminito El Rincon Unit 216,944.0,2.0,2.0,32.944576,-117.23566,3100,Sorrento Valley,5.9 km,1 hour 19 mins,10.4 km,12 mins,,,Whole Foods Market,5.8 km,10 mins,2.9729480635103913,201731,92130.0,0.42060846560846554
266,"10637 Golden Willow Trl, San Diego, CA 92130",92130,10637 Golden Willow Trl,2069.0,3.0,4.0,32.92875,-117.19933,7180,Sorrento Valley,5.9 km,1 hour 20 mins,10.9 km,13 mins,,,Trader Joe's,6.2 km,10 mins,5.881617594143761,201731,92130.0,0.42060846560846554
267,"3738 Mykonos Ln, San Diego, CA 92130",92130,3738 Mykonos Ln,1231.0,3.0,3.0,32.948513,-117.2298,3995,Sorrento Valley - Del Mar,3.0 km,39 mins,11.2 km,12 mins,,,Whole Foods Market,6.9 km,13 mins,3.3626775642085733,201731,92130.0,0.42060846560846554
268,"11022 Alonda Ct, San Diego, CA 92126",92126,11022 Alonda Ct,1871.0,3.0,4.0,32.922558,-117.16118,9000,Miramar College Transit Station,5.4 km,1 hour 17 mins,12.9 km,15 mins,16.9 km,1 hour 14 mins,H Mart,6.1 km,13 mins,9.354139212441392,123232,92126.0,0.7442857142857143
269,"12415 Ruette Alliante, San Diego, CA 92130",92130,12415 Ruette Alliante,1701.0,3.0,4.0,32.942665,-117.234856,5550,Sorrento Valley,5.8 km,1 hour 18 mins,11.0 km,12 mins,,,Whole Foods Market,5.8 km,10 mins,3.1293350425972823,201731,92130.0,0.42060846560846554
270,"5111 Tipton St, San Diego, CA 92115",92115,5111 Tipton St,1750.0,2.0,5.0,32.771084,-117.0625,7200,SDSU Station,1.1 km,16 mins,30.5 km,24 mins,30.1 km,1 hour 10 mins,Northgate González Market,4.1 km,9 mins,17.664011480721353,75178,92115.0,1.351058201058201
271,"5059 Campanile Dr, San Diego, CA 92115",92115,5059 Campanile Dr,1700.0,3.0,5.0,32.769623,-117.07158,10000,SDSU Station,0.5 km,8 mins,28.4 km,23 mins,29.5 km,1 hour 3 mins,Northgate González Market,4.0 km,8 mins,16.813409177324605,75178,92115.0,1.351058201058201
272,"5156 Ewing St, San Diego, CA 92115",92115,5156 Ewing St,1578.0,2.0,4.0,32.772144,-117.06148,5090,SDSU Station,1.3 km,18 mins,30.6 km,25 mins,30.3 km,1 hour 13 mins,Northgate González Market,4.2 km,9 mins,17.76148668621824,75178,92115.0,1.351058201058201
273,"9865 Park Crest Ln, San Diego, CA 92124",92124,9865 Park Crest Ln,1360.0,3.0,2.0,32.826946,-117.1133,3700,Clairemont Mesa Bl & Complex Dr,2.9 km,42 mins,19.7 km,17 mins,31.3 km,1 hour 29 mins,H Mart Balboa,7.2 km,12 mins,13.725014827785934,108219,92124.0,1.0722486772486772
274,"5133 Tipton St, San Diego, CA 92115",92115,5133 Tipton St,1800.0,2.0,5.0,32.771748,-117.06252,7200,SDSU Station,1.1 km,15 mins,30.4 km,24 mins,30.0 km,1 hour 10 mins,Northgate González Market,4.0 km,9 mins,17.663384795073828,75178,92115.0,1.351058201058201
275,"5094 Faber Way, San Diego, CA 92115",92115,5094 Faber Way,1200.0,2.0,4.0,32.770653,-117.07981,5800,SDSU Station,1.2 km,17 mins,27.7 km,21 mins,30.2 km,1 hour 12 mins,Northgate González Market,2.9 km,7 mins,16.04505743022922,75178,92115.0,1.351058201058201
276,"6175 Mary Lane Dr, San Diego, CA 92115",92115,6175 Mary Lane Dr,1876.0,2.0,6.0,32.76972,-117.06648,9000,SDSU Station,0.7 km,10 mins,30.1 km,24 mins,29.7 km,1 hour 6 mins,Northgate González Market,3.8 km,8 mins,17.290309218761628,75178,92115.0,1.351058201058201
277,"5047 Art St, San Diego, CA 92115",92115,5047 Art St,1521.0,3.0,4.0,32.76948,-117.06302,5229,SDSU Station,1.1 km,15 mins,30.4 km,24 mins,30.0 km,1 hour 9 mins,Northgate González Market,3.8 km,8 mins,17.613663188254595,75178,92115.0,1.351058201058201
278,"5135 Tipton St, San Diego, CA 92115",92115,5135 Tipton St,1200.0,2.0,4.0,32.771667,-117.06275,5800,SDSU Station,1.1 km,15 mins,30.4 km,24 mins,30.0 km,1 hour 10 mins,Northgate González Market,4.0 km,9 mins,17.64171608680491,75178,92115.0,1.351058201058201
279,"5113 Tipton St, San Diego, CA 92115",92115,5113 Tipton St,1400.0,2.0,4.0,32.77095,-117.062645,5900,SDSU Station,1.1 km,16 mins,30.5 km,24 mins,30.1 km,1 hour 10 mins,Northgate González Market,4.1 km,9 mins,17.6502422743115,75178,92115.0,1.351058201058201
280,"5077 La Dorna St, San Diego, CA 92115",92115,5077 La Dorna St,1200.0,2.0,4.0,32.770866,-117.05897,5000,SDSU Station,1.5 km,21 mins,30.9 km,24 mins,32.1 km,1 hour 16 mins,Northgate González Market,4.5 km,9 mins,17.993687470573487,75178,92115.0,1.351058201058201
281,"5313 Hewlett Dr, San Diego, CA 92115",92115,5313 Hewlett Dr,1200.0,2.0,4.0,32.773823,-117.08135,5695,SDSU Station,1.4 km,20 mins,28.4 km,22 mins,30.4 km,1 hour 15 mins,Northgate González Market,4.4 km,9 mins,15.909766138956035,75178,92115.0,1.351058201058201
282,"5308 Brockbank Pl, San Diego, CA 92115",92115,5308 Brockbank Pl,1624.0,3.0,5.0,32.774643,-117.06403,7695,SDSU Station,1.3 km,18 mins,30.6 km,25 mins,30.3 km,1 hour 13 mins,Northgate González Market,4.3 km,9 mins,17.531331224257936,75178,92115.0,1.351058201058201
283,"5125 Tipton St, San Diego, CA 92115",92115,5125 Tipton St,1697.0,3.0,6.0,32.77143,-117.06251,7000,SDSU Station,1.1 km,15 mins,30.6 km,24 mins,30.0 km,1 hour 10 mins,Northgate González Market,4.0 km,9 mins,17.663685811029513,75178,92115.0,1.351058201058201
284,"5174 Tipton St, San Diego, CA 92115",92115,5174 Tipton St,1572.0,2.0,5.0,32.77274,-117.06309,6850,SDSU Station,1.2 km,17 mins,30.5 km,24 mins,30.1 km,1 hour 11 mins,Northgate González Market,4.1 km,9 mins,17.612541175485497,75178,92115.0,1.351058201058201
285,"5228 Caminito Solitario, San Diego, CA 92108",92108,5228 Caminito Solitario,1618.0,3.0,2.0,32.77305,-117.102196,5800,SDSU Station,8.9 km,2 hours 11 mins,25.9 km,20 mins,34.6 km,2 hours 7 mins,Sprouts Farmers Market,6.9 km,13 mins,13.958958029241629,101704,92108.0,21.67928571428571
286,"6811 Alvarado Rd, San Diego, CA 92120",92120,6811 Alvarado Rd,1100.0,2.0,2.0,32.775715,-117.05206,2600,SDSU Station,2.4 km,34 mins,31.3 km,23 mins,31.2 km,1 hour 5 mins,Trader Joe's,5.3 km,7 mins,18.654274630889468,114579,92120.0,1.4088977072310405
287,"5448 Mary Lane Dr, San Diego, CA 92115",92115,5448 Mary Lane Dr,1200.0,3.0,4.0,32.77021,-117.07781,5940,SDSU Station,1.0 km,14 mins,28.1 km,22 mins,30.0 km,1 hour 9 mins,Northgate González Market,4.1 km,9 mins,16.23145832821848,75178,92115.0,1.351058201058201
288,"5247 Rincon St, San Diego, CA 92115",92115,5247 Rincon St,1400.0,2.0,5.0,32.77393,-117.06141,6695,SDSU Station,1.4 km,20 mins,30.8 km,25 mins,30.4 km,1 hour 15 mins,Northgate González Market,4.4 km,10 mins,17.773365377621502,75178,92115.0,1.351058201058201
289,"5014 54th St, San Diego, CA 92115",92115,5014 54th St,1664.0,2.0,5.0,32.769314,-117.080376,7900,SDSU Station,1.3 km,20 mins,27.8 km,21 mins,30.3 km,1 hour 15 mins,Northgate González Market,2.7 km,7 mins,15.99083052683641,75178,92115.0,1.351058201058201
290,"5484 Baja Dr, San Diego, CA 92115",92115,5484 Baja Dr,1633.0,3.0,7.0,32.767982,-117.07737,8800,SDSU Station,1.5 km,22 mins,28.3 km,22 mins,30.5 km,1 hour 17 mins,Northgate González Market,2.7 km,7 mins,16.271959279762918,75178,92115.0,1.351058201058201
291,"5436 Mary Lane Dr, San Diego, CA 92115",92115,5436 Mary Lane Dr,1200.0,3.0,4.0,32.770245,-117.07806,5795,SDSU Station,1.0 km,15 mins,28.1 km,22 mins,30.0 km,1 hour 9 mins,Northgate González Market,4.1 km,9 mins,16.208125304046884,75178,92115.0,1.351058201058201
292,"5432 Mary Lane Dr, San Diego, CA 92115",92115,5432 Mary Lane Dr,1200.0,4.0,4.0,32.77026,-117.07813,6295,SDSU Station,1.0 km,15 mins,28.1 km,22 mins,30.0 km,1 hour 10 mins,Northgate González Market,4.1 km,9 mins,16.20159835366211,75178,92115.0,1.351058201058201
293,"11320 Portobelo Dr Unit 4, San Diego, CA 92124",92124,11320 Portobelo Dr Unit 4,1560.0,3.0,3.0,32.840797,-117.08447,4000,Clairemont Mesa Bl & Overland Av,5.2 km,1 hour 12 mins,20.7 km,17 mins,27.4 km,1 hour 53 mins,Vons,6.5 km,11 mins,16.22482470991298,108219,92124.0,1.0722486772486772
294,"6356 Mesita Dr, San Diego, CA 92115",92115,6356 Mesita Dr,1575.0,2.0,3.0,32.768463,-117.0627,4400,SDSU Station,1.2 km,17 mins,30.6 km,25 mins,30.2 km,1 hour 12 mins,Northgate González Market,3.7 km,8 mins,17.643418507255348,75178,92115.0,1.351058201058201
295,"5127 Tipton St, San Diego, CA 92115",92115,5127 Tipton St,1200.0,2.0,4.0,32.77156,-117.06274,5000,SDSU Station,1.1 km,15 mins,30.4 km,24 mins,30.0 km,1 hour 9 mins,Northgate González Market,4.0 km,9 mins,17.64243551721833,75178,92115.0,1.351058201058201
296,"5677 Dorothy Way, San Diego, CA 92115",92115,5677 Dorothy Way,1200.0,2.0,4.0,32.76798,-117.0731,5395,SDSU Station,0.8 km,12 mins,28.5 km,23 mins,29.8 km,1 hour 7 mins,Northgate González Market,4.3 km,10 mins,16.671202042128616,75178,92115.0,1.351058201058201
297,"5241 College Gardens Ct, San Diego, CA 92115",92115,5241 College Gardens Ct,2016.0,2.0,4.0,32.772606,-117.0823,4700,SDSU Station,1.5 km,22 mins,28.2 km,22 mins,30.5 km,1 hour 17 mins,Northgate González Market,4.2 km,9 mins,15.816722143823494,75178,92115.0,1.351058201058201
298,"5028 70th St, San Diego, CA 92115",92115,5028 70th St,1047.0,2.0,3.0,32.769985,-117.04726,3500,SDSU Station,2.6 km,36 mins,31.4 km,23 mins,33.0 km,1 hour 10 mins,Trader Joe's,4.8 km,8 mins,19.087506495556564,75178,92115.0,1.351058201058201
299,"3068 Marquee Way, San Diego, CA 92108",92108,3068 Marquee Way,1570.0,3.0,3.0,32.78196,-117.14263,5500,Fashion Valley Station,3.7 km,50 mins,22.6 km,19 mins,22.9 km,1 hour 2 mins,Whole Foods Market,6.3 km,10 mins,10.27713902834207,101704,92108.0,21.67928571428571
300,"3031 Murray Ridge Rd, San Diego, CA 92123",92123,3031 Murray Ridge Rd,1134.0,2.0,3.0,32.799667,-117.14179,4200,Fashion Valley Station,5.5 km,1 hour 13 mins,20.1 km,16 mins,25.2 km,1 hour 7 mins,H Mart Balboa,6.3 km,7 mins,10.575268570253392,121856,92123.0,1.4509082892416227
301,"5410 Baja Dr, San Diego, CA 92115",92115,5410 Baja Dr,1780.0,2.0,5.0,32.76795,-117.07939,6500,SDSU Station,1.6 km,24 mins,28.1 km,21 mins,30.6 km,1 hour 19 mins,Northgate González Market,2.6 km,7 mins,16.08310940683052,75178,92115.0,1.351058201058201
302,"5027 Campanile Dr, San Diego, CA 92115",92115,5027 Campanile Dr,1727.0,2.0,5.0,32.76882,-117.07141,5850,SDSU Station,0.6 km,9 mins,28.5 km,23 mins,29.7 km,1 hour 4 mins,Northgate González Market,3.6 km,9 mins,16.82901292084688,75178,92115.0,1.351058201058201
303,"2741 Via Avella Dr, San Diego, CA 92108",92108,2741 Via Avella Dr,2346.0,4.0,4.0,32.78111,-117.146194,9478,Fashion Valley Station,3.4 km,46 mins,22.7 km,20 mins,23.0 km,1 hour 2 mins,Whole Foods Market,5.7 km,11 mins,9.9339183416189,101704,92108.0,21.67928571428571
304,"7594 Park Ridge Blvd Unit 3, San Diego, CA 92120",92120,7594 Park Ridge Blvd Unit 3,941.0,2.0,2.0,32.806572,-117.048965,2800,SDSU Station,5.4 km,1 hour 14 mins,32.7 km,25 mins,34.7 km,1 hour 23 mins,Trader Joe's,5.5 km,8 mins,19.283381491196753,114579,92120.0,1.4088977072310405
305,"6402 Shane Pl #1, San Diego, CA 92115",92115,6402 Shane Pl #1,1100.0,2.0,3.0,32.77316,-117.060005,3600,SDSU Station,1.9 km,26 mins,31.2 km,25 mins,32.4 km,1 hour 21 mins,Northgate González Market,4.8 km,10 mins,17.902103765082472,75178,92115.0,1.351058201058201
306,"5442 Brockbank Pl, San Diego, CA 92115",92115,5442 Brockbank Pl,1900.0,3.0,6.0,32.77705,-117.06472,6800,SDSU Station,1.6 km,24 mins,31.0 km,25 mins,30.6 km,1 hour 18 mins,Northgate González Market,4.6 km,10 mins,17.478973084581057,75178,92115.0,1.351058201058201
307,"5444 Brockbank Pl, San Diego, CA 92115",92115,5444 Brockbank Pl,1200.0,2.0,5.0,32.77716,-117.06449,5200,SDSU Station,1.6 km,24 mins,31.0 km,25 mins,30.6 km,1 hour 18 mins,Northgate González Market,4.6 km,10 mins,17.501096123460815,75178,92115.0,1.351058201058201
308,"6250 Dorothy Dr, San Diego, CA 92115",92115,6250 Dorothy Dr,1400.0,3.0,5.0,32.769436,-117.0651,6800,SDSU Station,0.9 km,13 mins,30.4 km,24 mins,29.9 km,1 hour 8 mins,Northgate González Market,3.7 km,8 mins,17.419165312356125,75178,92115.0,1.351058201058201
309,"5394 Redding Rd, San Diego, CA 92115",92115,5394 Redding Rd,1100.0,2.0,3.0,32.7761,-117.08215,4400,SDSU Station,1.3 km,18 mins,28.8 km,23 mins,30.3 km,1 hour 13 mins,Northgate González Market,4.8 km,10 mins,15.84612275840655,75178,92115.0,1.351058201058201
310,"4915 54th St, San Diego, CA 92115",92115,4915 54th St,1200.0,2.0,4.0,32.76784,-117.079994,4950,SDSU Station,1.5 km,23 mins,28.0 km,21 mins,30.5 km,1 hour 18 mins,Northgate González Market,2.5 km,7 mins,16.02670568013298,75178,92115.0,1.351058201058201
311,"4953 Baja Ct, San Diego, CA 92115",92115,4953 Baja Ct,405.0,1.0,2.0,32.767906,-117.0756,2450,SDSU Station,1.4 km,20 mins,28.5 km,22 mins,30.4 km,1 hour 15 mins,Northgate González Market,2.9 km,8 mins,16.43749739310186,75178,92115.0,1.351058201058201
312,"5320 Redding Rd, San Diego, CA 92115",92115,5320 Redding Rd,941.0,2.0,3.0,32.77411,-117.082184,4450,SDSU Station,1.6 km,21 mins,28.5 km,23 mins,30.6 km,1 hour 16 mins,Northgate González Market,4.5 km,10 mins,15.8330192104819,75178,92115.0,1.351058201058201
313,"5011 Rockford Dr, San Diego, CA 92115",92115,5011 Rockford Dr,1100.0,2.0,4.0,32.768852,-117.06768,5075,SDSU Station,0.7 km,10 mins,30.1 km,23 mins,29.7 km,1 hour 5 mins,Northgate González Market,3.5 km,7 mins,17.17776837361766,75178,92115.0,1.351058201058201
314,"5231 Remington Rd, San Diego, CA 92115",92115,5231 Remington Rd,1700.0,2.0,5.0,32.776047,-117.08257,6550,SDSU Station,1.4 km,19 mins,28.8 km,23 mins,30.4 km,1 hour 14 mins,Northgate González Market,4.8 km,10 mins,15.806603951614054,75178,92115.0,1.351058201058201
315,"2864 Mission Village Dr, San Diego, CA 92123",92123,2864 Mission Village Dr,1518.0,2.0,3.0,32.796947,-117.12582,4650,Mission Valley Center Station,5.2 km,1 hour 10 mins,22.2 km,19 mins,25.8 km,1 hour 13 mins,H Mart Balboa,8.4 km,10 mins,12.05238083888338,121856,92123.0,1.4509082892416227
316,"7773 Eagle Ridge Dr, San Diego, CA 92119",92119,7773 Eagle Ridge Dr,2041.0,3.0,3.0,32.803123,-117.02925,6500,Amaya Trolley Station,4.6 km,1 hour 3 mins,34.3 km,27 mins,43.4 km,1 hour 48 mins,Trader Joe's,6.2 km,12 mins,21.09905001760212,115600,92119.0,0.6551851851851851
317,"5617 Dorothy Dr, San Diego, CA 92115",92115,5617 Dorothy Dr,2221.0,4.0,8.0,32.76879,-117.07369,9200,SDSU Station,0.8 km,11 mins,28.3 km,23 mins,29.8 km,1 hour 6 mins,Northgate González Market,4.2 km,9 mins,16.615832307919842,75178,92115.0,1.351058201058201
318,"8271 Kaplan Dr, San Diego, CA 92123",92123,8271 Kaplan Dr,2119.0,3.0,3.0,32.78177,-117.15106,5200,Fashion Valley Station,3.5 km,47 mins,19.5 km,16 mins,22.3 km,1 hour 12 mins,Whole Foods Market,8.0 km,9 mins,9.49468467025583,121856,92123.0,1.4509082892416227
319,"6370 Cleo St, San Diego, CA 92115",92115,6370 Cleo St,735.0,1.0,2.0,32.775345,-117.06107,3100,SDSU Station,2.1 km,30 mins,31.5 km,26 mins,32.7 km,1 hour 24 mins,Northgate González Market,4.7 km,11 mins,17.81092685409475,75178,92115.0,1.351058201058201
320,"2764 Piantino Cir, San Diego, CA 92108",92108,2764 Piantino Cir,1759.0,2.0,3.0,32.783543,-117.13193,4699,Fashion Valley Station,4.9 km,1 hour 5 mins,23.5 km,21 mins,24.3 km,1 hour 1 min,Whole Foods Market,7.1 km,12 mins,11.292388948656122,101704,92108.0,21.67928571428571
321,"2860 Escala Cir, San Diego, CA 92108",92108,2860 Escala Cir,1279.0,3.0,3.0,32.78105,-117.13408,4295,Fashion Valley Station,4.7 km,1 hour 3 mins,23.3 km,21 mins,24.2 km,1 hour 0 mins,Whole Foods Market,7.0 km,11 mins,11.05563917784139,101704,92108.0,21.67928571428571
322,"6494 Bell Bluff Ave, San Diego, CA 92119",92119,6494 Bell Bluff Ave,820.0,1.0,2.0,32.81664,-117.05715,2695,SDSU Station,6.9 km,1 hour 40 mins,31.6 km,24 mins,36.4 km,1 hour 50 mins,ALDI,6.0 km,9 mins,18.64018540223937,115600,92119.0,0.6551851851851851
323,"6110 Calle Mariselda Unit 102, San Diego, CA 92124",92124,6110 Calle Mariselda Unit 102,772.0,1.0,1.0,32.83449,-117.09732,3350,Clairemont Mesa Bl & Complex Dr,3.9 km,55 mins,20.3 km,16 mins,24.5 km,1 hour 25 mins,Zion Market,6.6 km,7 mins,15.1454631740075,108219,92124.0,1.0722486772486772
324,"7778 Stylus Dr, San Diego, CA 92108",92108,7778 Stylus Dr,2110.0,4.0,3.0,32.77947,-117.15153,5600,Fashion Valley Station,3.0 km,40 mins,21.7 km,18 mins,22.7 km,1 hour 11 mins,Whole Foods Market,5.7 km,10 mins,9.415154543110656,101704,92108.0,21.67928571428571
325,"5028 Faber Way, San Diego, CA 92115",92115,5028 Faber Way,1200.0,2.0,5.0,32.7694,-117.08085,5300,SDSU Station,1.4 km,20 mins,28.0 km,21 mins,30.4 km,1 hour 15 mins,Northgate González Market,2.8 km,7 mins,15.946555164784424,75178,92115.0,1.351058201058201
326,"Newly Renovated!! 7 Bedroom property on Baja!, 5418 Baja Dr, San Diego, CA 92115",92115,5418 Baja Dr #0,2106.0,3.0,7.0,32.767952,-117.07922,6600,SDSU Station,1.6 km,24 mins,28.1 km,21 mins,30.6 km,1 hour 19 mins,Northgate González Market,2.6 km,7 mins,16.099003077101564,75178,92115.0,1.351058201058201
327,"7647 Mission Gorge Rd Unit 20, San Diego, CA 92120",92120,7647 Mission Gorge Rd Unit 20,1035.0,2.0,2.0,32.807777,-117.07151,3100,SDSU Station,5.6 km,1 hour 23 mins,28.5 km,25 mins,34.6 km,1 hour 48 mins,Trader Joe's,5.8 km,10 mins,17.19445379912495,114579,92120.0,1.4088977072310405
328,"5114 63rd St, San Diego, CA 92115",92115,5114 63rd St,1804.0,3.0,5.0,32.77103,-117.06407,6500,SDSU Station,0.9 km,13 mins,30.3 km,24 mins,29.9 km,1 hour 8 mins,Northgate González Market,3.9 km,8 mins,17.517148758019392,75178,92115.0,1.351058201058201
329,"6924 Hyde Park Dr Unit 210, San Diego, CA 92119",92119,6924 Hyde Park Dr Unit 210,688.0,1.0,1.0,32.801838,-117.04673,1895,SDSU Station,5.4 km,1 hour 12 mins,32.6 km,25 mins,34.8 km,1 hour 20 mins,Trader Joe's,5.5 km,11 mins,19.460345000579153,115600,92119.0,0.6551851851851851
330,"4955 Baja Ct, San Diego, CA 92115",92115,4955 Baja Ct,1498.0,3.0,6.0,32.768456,-117.07512,7700,SDSU Station,1.4 km,21 mins,28.5 km,22 mins,30.4 km,1 hour 16 mins,Northgate González Market,3.0 km,8 mins,16.482153139957134,75178,92115.0,1.351058201058201
331,"5310 Redding Rd, San Diego, CA 92115",92115,5310 Redding Rd,1503.0,2.0,5.0,32.773975,-117.08244,6250,SDSU Station,1.6 km,22 mins,28.5 km,23 mins,30.6 km,1 hour 17 mins,Northgate González Market,4.5 km,10 mins,15.808539303768802,75178,92115.0,1.351058201058201
332,"5682 Mary Lane Dr, San Diego, CA 92115",92115,5682 Mary Lane Dr,2507.0,4.0,8.0,32.769985,-117.07352,10500,SDSU Station,0.6 km,9 mins,28.3 km,22 mins,29.6 km,1 hour 4 mins,Northgate González Market,4.1 km,9 mins,16.632315177176814,75178,92115.0,1.351058201058201
333,"5531 Mary Lane Dr, San Diego, CA 92115",92115,5531 Mary Lane Dr,1708.0,2.0,5.0,32.76955,-117.075676,7050,SDSU Station,0.9 km,12 mins,28.1 km,22 mins,29.9 km,1 hour 7 mins,Northgate González Market,4.1 km,9 mins,16.4303980972534,75178,92115.0,1.351058201058201
334,"5346 E Falls View Dr, San Diego, CA 92115",92115,5346 E Falls View Dr,2380.0,3.0,6.0,32.77571,-117.0652,8200,SDSU Station,1.4 km,20 mins,30.7 km,25 mins,30.4 km,1 hour 14 mins,Northgate González Market,4.5 km,10 mins,17.42689622168924,75178,92115.0,1.351058201058201
335,"5130 Brockbank Pl, San Diego, CA 92115",92115,5130 Brockbank Pl,1950.0,3.0,5.0,32.771908,-117.06355,6500,SDSU Station,1.1 km,15 mins,30.4 km,24 mins,30.1 km,1 hour 10 mins,Northgate González Market,4.0 km,9 mins,17.56744855011048,75178,92115.0,1.351058201058201
336,"5135 Bixel Dr, San Diego, CA 92115",92115,5135 Bixel Dr,2160.0,3.0,4.0,32.77787,-117.08413,6200,SDSU Station,1.8 km,26 mins,29.3 km,24 mins,30.8 km,1 hour 21 mins,Northgate González Market,5.3 km,11 mins,15.672818230488708,75178,92115.0,1.351058201058201
337,"5338 Hewlett Dr, San Diego, CA 92115",92115,5338 Hewlett Dr,1200.0,2.0,5.0,32.77439,-117.081345,6400,SDSU Station,1.4 km,19 mins,28.5 km,22 mins,30.4 km,1 hour 14 mins,Northgate González Market,4.5 km,9 mins,15.912608863726753,75178,92115.0,1.351058201058201
338,"5229 E Falls View Dr, San Diego, CA 92115",92115,5229 E Falls View Dr,1200.0,2.0,4.0,32.772713,-117.06425,5500,SDSU Station,1.0 km,15 mins,30.4 km,24 mins,30.0 km,1 hour 9 mins,Northgate González Market,4.1 km,9 mins,17.50404527960845,75178,92115.0,1.351058201058201
339,"5166 69th St #5, San Diego, CA 92115",92115,5166 69th St #5,744.0,1.0,2.0,32.772186,-117.04922,2595,SDSU Station,2.6 km,36 mins,31.3 km,23 mins,33.2 km,1 hour 13 mins,Trader Joe's,5.3 km,7 mins,18.907598557120075,75178,92115.0,1.351058201058201
340,"4959 Catoctin Dr, San Diego, CA 92115",92115,4959 Catoctin Dr,2360.0,2.0,4.0,32.7679,-117.05996,5195,SDSU Station,1.5 km,21 mins,31.0 km,25 mins,32.1 km,1 hour 16 mins,Northgate González Market,3.6 km,8 mins,17.899827149590426,75178,92115.0,1.351058201058201
341,"5492 Drover Dr #1, San Diego, CA 92115",92115,5492 Drover Dr #1,1800.0,2.0,6.0,32.777493,-117.086815,6500,SDSU Station,1.9 km,27 mins,29.3 km,24 mins,30.9 km,1 hour 21 mins,Vons,10.0 km,12 mins,15.419624363580564,75178,92115.0,1.351058201058201
342,"5452 Adobe Falls Rd Unit 7, San Diego, CA 92120",92120,5452 Adobe Falls Rd Unit 7,1144.0,2.0,2.0,32.782482,-117.080734,2795,SDSU Station,6.4 km,1 hour 34 mins,27.5 km,20 mins,27.9 km,1 hour 16 mins,Northgate González Market,7.2 km,13 mins,16.03047187410107,114579,92120.0,1.4088977072310405
343,"6232 Dorothy Dr, San Diego, CA 92115",92115,6232 Dorothy Dr,1800.0,5.0,6.0,32.769432,-117.06548,8900,SDSU Station,0.9 km,12 mins,30.4 km,24 mins,29.9 km,1 hour 7 mins,Northgate González Market,3.7 km,8 mins,17.383634117018552,75178,92115.0,1.351058201058201
344,"8362 Bashan Lake Ave, San Diego, CA 92119",92119,8362 Bashan Lake Ave,1356.0,2.0,4.0,32.801674,-117.01636,4300,El Cajon Transit Center,5.6 km,1 hour 17 mins,34.0 km,25 mins,41.9 km,1 hour 28 mins,Trader Joe's,5.4 km,9 mins,22.277744840013227,115600,92119.0,0.6551851851851851
345,"6111 Rancho Mission Rd Unit 208, San Diego, CA 92108",92108,6111 Rancho Mission Rd Unit 208,878.0,2.0,2.0,32.785564,-117.10907,2395,SDSU Station,8.0 km,1 hour 58 mins,24.1 km,20 mins,25.7 km,1 hour 3 mins,Trader Joe's,7.0 km,10 mins,13.439583321553329,101704,92108.0,21.67928571428571
346,"5042 54th St, San Diego, CA 92115",92115,5042 54th St,1200.0,2.0,4.0,32.769806,-117.07992,5750,SDSU Station,1.3 km,19 mins,27.8 km,21 mins,30.3 km,1 hour 13 mins,Northgate González Market,2.8 km,7 mins,16.033785617149114,75178,92115.0,1.351058201058201
347,"7747 Margerum Ave Unit 126, San Diego, CA 92120",92120,7747 Margerum Ave Unit 126,643.0,1.0,1.0,32.80878,-117.06647,2195,SDSU Station,5.2 km,1 hour 16 mins,28.2 km,24 mins,34.3 km,1 hour 42 mins,Trader Joe's,5.4 km,9 mins,17.673794988623808,114579,92120.0,1.4088977072310405
348,"5024 54th St, San Diego, CA 92115",92115,5024 54th St,1800.0,4.0,6.0,32.769524,-117.080315,7500,SDSU Station,1.3 km,19 mins,27.8 km,21 mins,30.3 km,1 hour 14 mins,Northgate González Market,2.8 km,7 mins,15.996647983313096,75178,92115.0,1.351058201058201
349,"5288 Manhasset Dr, San Diego, CA 92115",92115,5288 Manhasset Dr,1500.0,3.0,5.0,32.77375,-117.08178,7400,SDSU Station,1.5 km,21 mins,28.4 km,22 mins,30.5 km,1 hour 16 mins,Northgate González Market,4.4 km,9 mins,15.86930081829867,75178,92115.0,1.351058201058201
350,"6141 Dorothy Dr, San Diego, CA 92115",92115,6141 Dorothy Dr,1650.0,2.0,5.0,32.769005,-117.06677,6200,SDSU Station,0.7 km,11 mins,30.1 km,24 mins,29.8 km,1 hour 6 mins,Northgate González Market,3.7 km,8 mins,17.262874032734725,75178,92115.0,1.351058201058201
351,"2701 Community Dr, San Diego, CA 92108",92108,2701 Community Dr,1512.0,3.0,3.0,32.781578,-117.144775,5295,Fashion Valley Station,3.5 km,47 mins,22.7 km,19 mins,23.0 km,1 hour 2 mins,Whole Foods Market,6.3 km,10 mins,10.072593003311068,101704,92108.0,21.67928571428571
352,"5001 54th St, San Diego, CA 92115",92115,5001 54th St,2300.0,3.0,7.0,32.76885,-117.080025,8400,SDSU Station,1.4 km,20 mins,27.9 km,21 mins,30.4 km,1 hour 15 mins,Northgate González Market,2.7 km,7 mins,16.023517578504098,75178,92115.0,1.351058201058201
353,"5041 Art St, San Diego, CA 92115",92115,5041 Art St,1200.0,2.0,4.0,32.769257,-117.063194,5200,SDSU Station,1.1 km,15 mins,30.4 km,24 mins,30.0 km,1 hour 9 mins,Northgate González Market,3.7 km,8 mins,17.597296202314766,75178,92115.0,1.351058201058201
354,"5121 Tipton St, San Diego, CA 92115",92115,5121 Tipton St,1487.0,2.0,5.0,32.77128,-117.06248,6750,SDSU Station,1.1 km,15 mins,30.5 km,24 mins,30.1 km,1 hour 10 mins,Northgate González Market,4.0 km,9 mins,17.666215969331102,75178,92115.0,1.351058201058201
355,"5123 Tipton St, San Diego, CA 92115",92115,5123 Tipton St,1200.0,2.0,4.0,32.771324,-117.06273,5395,SDSU Station,1.1 km,15 mins,30.6 km,24 mins,30.1 km,1 hour 10 mins,Northgate González Market,4.0 km,9 mins,17.642923684356845,75178,92115.0,1.351058201058201
356,"5115-21 Remington Road - 5117, 5117 Remington Rd, San Diego, CA 92115",92115,5117 Remington Rd,2000.0,4.0,8.0,32.77593,-117.08457,9795,SDSU Station,1.5 km,21 mins,29.0 km,23 mins,30.5 km,1 hour 16 mins,Northgate González Market,5.0 km,10 mins,15.619198141999384,75178,92115.0,1.351058201058201
357,"5112 Tipton St., 5112 Tipton St, San Diego, CA 92115",92115,5112 Tipton St,2519.0,3.0,7.0,32.770756,-117.06288,8800,SDSU Station,1.1 km,16 mins,30.5 km,24 mins,30.1 km,1 hour 10 mins,Northgate González Market,4.1 km,9 mins,17.627985185017558,75178,92115.0,1.351058201058201
358,"5062 Alumni Pl, San Diego, CA 92115",92115,5062 Alumni Pl,1892.0,3.0,6.0,32.770164,-117.05692,6595,SDSU Station,1.8 km,25 mins,31.1 km,26 mins,32.2 km,1 hour 18 mins,Trader Joe's,7.2 km,10 mins,18.1844984832659,75178,92115.0,1.351058201058201
359,"70th Street Triplex, 5120-5122 70th St #5120, San Diego, CA 92115",92115,5120-5122 70th St #5120,1685.0,2.0,4.0,32.76959,-117.047104,3695,SDSU Station,2.6 km,36 mins,31.0 km,22 mins,33.0 km,1 hour 10 mins,Trader Joe's,5.0 km,6 mins,19.10183062803138,75178,92115.0,1.351058201058201
360,"5529 Dorothy Dr, San Diego, CA 92115",92115,5529 Dorothy Dr,1200.0,2.0,4.0,32.769012,-117.075714,5995,SDSU Station,1.0 km,13 mins,28.2 km,22 mins,30.0 km,1 hour 8 mins,Northgate González Market,4.1 km,9 mins,16.42661907212049,75178,92115.0,1.351058201058201
361,"6126 Dorothy Dr, San Diego, CA 92115",92115,6126 Dorothy Dr,2000.0,3.0,5.0,32.769413,-117.06737,7000,SDSU Station,0.7 km,10 mins,30.0 km,24 mins,29.7 km,1 hour 5 mins,Northgate González Market,3.6 km,8 mins,17.20691363949529,75178,92115.0,1.351058201058201
362,"5223 E Falls View Dr, San Diego, CA 92115",92115,5223 E Falls View Dr,2500.0,3.0,5.0,32.772987,-117.06401,7000,SDSU Station,1.1 km,15 mins,30.4 km,24 mins,30.0 km,1 hour 10 mins,Northgate González Market,4.2 km,9 mins,17.527271574423352,75178,92115.0,1.351058201058201
363,"8802 Glenhaven St, San Diego, CA 92123",92123,8802 Glenhaven St,1381.0,2.0,3.0,32.805473,-117.139,4395,Mission Valley Center Station,5.4 km,1 hour 12 mins,20.9 km,18 mins,26.2 km,1 hour 9 mins,H Mart Balboa,7.0 km,8 mins,10.89444736158158,121856,92123.0,1.4509082892416227
364,"5311 Saxon St, San Diego, CA 92115",92115,5311 Saxon St,1750.0,3.0,6.0,32.773987,-117.08276,6200,SDSU Station,1.6 km,23 mins,28.6 km,23 mins,30.6 km,1 hour 18 mins,Northgate González Market,4.6 km,10 mins,15.778691268114304,75178,92115.0,1.351058201058201
365,"5225 E Falls View Dr, San Diego, CA 92115",92115,5225 E Falls View Dr,1200.0,2.0,4.0,32.772633,-117.06425,5100,SDSU Station,1.0 km,15 mins,30.4 km,24 mins,30.0 km,1 hour 9 mins,Northgate González Market,4.1 km,9 mins,17.503822976420015,75178,92115.0,1.351058201058201
366,"10751 Cariuto Ct, San Diego, CA 92124",92124,10751 Cariuto Ct,1558.0,2.0,4.0,32.82443,-117.09819,4250,Union Grantville Station,8.9 km,2 hours 0 mins,20.7 km,18 mins,25.1 km,1 hour 19 mins,Zion Market,5.5 km,10 mins,15.023352152993729,108219,92124.0,1.0722486772486772
